SALE TYPE,SOLD DATE,PROPERTY TYPE,ADDRESS,CITY,STATE OR PROVINCE,ZIP OR POSTAL CODE,PRICE,BEDS,BATHS,LOCATION,SQUARE FEET,LOT SIZE,YEAR BUILT,DAYS ON MARKET,$/SQUARE FEET,HOA/MONTH,STATUS,NEXT OPEN HOUSE START TIME,NEXT OPEN HOUSE END TIME,URL (SEE http://www.redfin.com/buy-a-home/comparative-market-analysis FOR INFO ON PRICING),SOURCE,MLS#,FAVORITE,INTERESTED,LATITUDE,LONGITUDE
PAST SALE,January-31-2020,Single Family Residential,6712 Branch Creek Dr,Fort Worth,TX,76132,359900,6,3.5,Hulen Bend Estates Add,3691,10062,1999,140,98,45,Sold,,,http://www.redfin.com/TX/Fort-Worth/6712-Branch-Creek-Dr-76132/home/32458206,NTREIS,14249845,N,Y,32.6537884,-97.4144105
PAST SALE,February-7-2020,Single Family Residential,6609 Hillside Dr,Benbrook,TX,76132,325000,3,2.0,Country Day Estates,2084,12110,1980,133,156,,Sold,,,http://www.redfin.com/TX/Benbrook/6609-Hillside-Dr-76132/home/31501777,NTREIS,14246042,N,Y,32.6894798,-97.4239188
PAST SALE,July-26-2019,Single Family Residential,21 Bounty Rd W,Benbrook,TX,76132,379900,4,3.0,Mont Del Estates Add,2612,16858,1970,329,145,3,Sold,,,http://www.redfin.com/TX/Benbrook/21-Bounty-Rd-W-76132/home/31795448,NTREIS,14106720,N,Y,32.6864965,-97.4166235
PAST SALE,September-19-2017,Single Family Residential,6733 Day Dr,Fort Worth,TX,76132,200000,4,2.5,Oakmont Meadows Add,2265,5489,1998,1004,88,,Sold,,,http://www.redfin.com/TX/Fort-Worth/6733-Day-Dr-76132/home/32446078,NTREIS,13668230,N,Y,32.6582886,-97.4115848
PAST SALE,November-9-2017,Single Family Residential,6705 Savannah Ln,Fort Worth,TX,76132,435000,4,2.5,Bellaire Park North,2950,11500,1993,953,147,3,Sold,,,http://www.redfin.com/TX/Fort-Worth/6705-Savannah-Ln-76132/home/32372663,NTREIS,13699351,N,Y,32.6730498,-97.4271717
PAST SALE,July-11-2017,Condo/Co-op,6144 Haley Ln,Fort Worth,TX,76132,239500,3,2.0,Villas On The Bluff Condo,1728,1568,1997,1074,139,335,Sold,,,http://www.redfin.com/TX/Fort-Worth/6144-Haley-Ln-76132/home/32447299,NTREIS,13595116,N,Y,32.672933,-97.421181
PAST SALE,October-24-2017,Single Family Residential,6001 Troon Rd,Fort Worth,TX,76132,685000,3,3.5,Mira Vista Add,4014,13199,1990,969,171,179,Sold,,,http://www.redfin.com/TX/Fort-Worth/6001-Troon-Rd-76132/home/32395409,NTREIS,13679706,N,Y,32.6625531,-97.4317344
PAST SALE,April-27-2018,Single Family Residential,6729 E Park Dr,Fort Worth,TX,76132,499000,5,4.0,Bellaire Park North,3974,12284,1994,784,126,3,Sold,,,http://www.redfin.com/TX/Fort-Worth/6729-E-Park-Dr-76132/home/32415657,NTREIS,13788525,N,Y,32.6713359,-97.4286926
PAST SALE,March-30-2018,Single Family Residential,6813 Savannah Ln,Fort Worth,TX,76132,524900,5,3.5,Bellaire Park North,4721,11369,1992,812,111,,Sold,,,http://www.redfin.com/TX/Fort-Worth/6813-Savannah-Ln-76132/home/32372706,NTREIS,13770066,N,Y,32.6735324,-97.4312486
PAST SALE,August-11-2017,Condo/Co-op,6151 Welden Ct,Fort Worth,TX,76132,239500,3,2.0,Villas On The Bluff Condo,1713,7013,1998,1043,140,335,Sold,,,http://www.redfin.com/TX/Fort-Worth/6151-Welden-Ct-76132/home/32458275,NTREIS,13641907,N,Y,32.671791,-97.421335
PAST SALE,April-2-2018,Townhouse,6629 Lost Star Ln,Fort Worth,TX,76132,350000,2,3.0,Bellaire Village,2510,2788,2016,809,139,83,Sold,,,http://www.redfin.com/TX/Fort-Worth/6629-Lost-Star-Ln-76132/home/31226473,NTREIS,13742953,N,Y,32.668316,-97.4268869
PAST SALE,June-26-2018,Vacant Land,7401 Pebble Ridge Dr,Fort Worth,TX,76132,100000,0,,Pebble Creek Ridge Add,,,,724,,117,Sold,,,http://www.redfin.com/TX/Fort-Worth/7401-Pebble-Ridge-Dr-76132/home/32477689,NTREIS,13861643,N,Y,32.6659999,-97.428022
PAST SALE,June-22-2017,Townhouse,6728 Lost Star Ln,Fort Worth,TX,76132,319982,2,3.0,Bellaire Village,2220,,2016,1093,144,83,Sold,,,http://www.redfin.com/TX/Fort-Worth/6728-Lost-Star-Ln-76132/home/31226445,NTREIS,13379878,N,Y,32.6686566,-97.4276153
PAST SALE,April-23-2018,Single Family Residential,4817 South Dr W,Fort Worth,TX,76132,345000,4,3.0,Overton South Add,2875,13329,1979,788,120,,Sold,,,http://www.redfin.com/TX/Fort-Worth/4817-South-Dr-W-76132/home/31877037,NTREIS,13741695,N,Y,32.6700254,-97.3970355
PAST SALE,July-6-2017,Single Family Residential,6920 Day Dr,Fort Worth,TX,76132,189000,3,2.0,Oakmont Meadows Add,1841,6534,2000,1079,103,,Sold,,,http://www.redfin.com/TX/Fort-Worth/6920-Day-Dr-76132/home/32473410,NTREIS,13614908,N,Y,32.6587391,-97.4137911
PAST SALE,January-17-2018,Single Family Residential,6312 Stockton Dr,Fort Worth,TX,76132,165900,3,2.0,Hulen Bend Add,1452,6011,2001,884,114,,Sold,,,http://www.redfin.com/TX/Fort-Worth/6312-Stockton-Dr-76132/home/32479842,NTREIS,13746092,N,Y,32.6590766,-97.4163152
PAST SALE,September-15-2017,Single Family Residential,6733 Audubon Trl,Fort Worth,TX,76132,315990,5,3.5,Hulen Bend Estates Add,3320,9540,2000,1008,95,45,Sold,,,http://www.redfin.com/TX/Fort-Worth/6733-Audubon-Trl-76132/home/32458212,NTREIS,13619763,N,Y,32.6532216,-97.4143722
PAST SALE,April-20-2018,Single Family Residential,6417 Fianna Hills Dr,Fort Worth,TX,76132,455000,4,4.0,Monarch Hills Add,3343,8407,2001,791,136,54,Sold,,,http://www.redfin.com/TX/Fort-Worth/6417-Fianna-Hills-Dr-76132/home/32457938,NTREIS,13802275,N,Y,32.6589835,-97.4282701
PAST SALE,January-31-2018,Single Family Residential,6913 Day Dr,Fort Worth,TX,76132,214000,3,2.0,Oakmont Meadows Add,2067,5489,1998,870,104,,Sold,,,http://www.redfin.com/TX/Fort-Worth/6913-Day-Dr-76132/home/32445895,NTREIS,13751901,N,Y,32.6582813,-97.4134478
PAST SALE,June-28-2018,Single Family Residential,10 Bounty Rd E,Benbrook,TX,76132,555000,4,4.0,Mont Del Estates Add,3923,17119,1967,722,141,3,Sold,,,http://www.redfin.com/TX/Benbrook/10-Bounty-Rd-E-76132/home/31795419,NTREIS,13823259,N,Y,32.6878461,-97.4159351
PAST SALE,May-4-2018,Single Family Residential,14 Legend Rd,Benbrook,TX,76132,409000,3,2.5,Mont Del Estates Add,2866,14157,1970,777,143,3,Sold,,,http://www.redfin.com/TX/Benbrook/14-Legend-Rd-76132/home/31795492,NTREIS,13802305,N,Y,32.6900428,-97.4179309
PAST SALE,December-21-2017,Single Family Residential,6928 Tameron Trl,Fort Worth,TX,76132,309900,3,2.0,Quail Ridge Estates Add,1955,9583,1992,911,159,,Sold,,,http://www.redfin.com/TX/Fort-Worth/6928-Tameron-Trl-76132/home/32400664,NTREIS,13706513,N,Y,32.650332,-97.4261155
PAST SALE,March-30-2018,Single Family Residential,6513 Stockton Dr,Fort Worth,TX,76132,210000,3,2.0,Hulen Bend Add,2021,6011,2002,812,104,,Sold,,,http://www.redfin.com/TX/Fort-Worth/6513-Stockton-Dr-76132/home/32479821,NTREIS,13756967,N,Y,32.6565656,-97.4157239
PAST SALE,September-7-2017,Single Family Residential,6605 Stockton Dr,Fort Worth,TX,76132,169900,3,2.0,Hulen Bend Add,1575,6011,2001,1016,108,,Sold,,,http://www.redfin.com/TX/Fort-Worth/6605-Stockton-Dr-76132/home/32480247,NTREIS,13664290,N,Y,32.6556983,-97.4155342
PAST SALE,April-4-2018,Single Family Residential,6678 Trinity Heights Blvd,Fort Worth,TX,76132,599900,4,2.5,Trinity Heights Crowley ISD,3378,12850,2000,807,178,75,Sold,,,http://www.redfin.com/TX/Fort-Worth/6678-Trinity-Heights-Blvd-76132/home/32457311,NTREIS,13716307,N,Y,32.6537581,-97.4327484
PAST SALE,June-23-2017,Single Family Residential,7154 Axis Ct,Fort Worth,TX,76132,279000,3,2.0,Quail Ridge Estates Add,1806,12937,2000,1092,154,42,Sold,,,http://www.redfin.com/TX/Fort-Worth/7154-Axis-Ct-76132/home/32456776,NTREIS,13585501,N,Y,32.6468809,-97.4228627
PAST SALE,October-6-2017,Single Family Residential,6901 Vista Ridge Dr W,Fort Worth,TX,76132,369900,3,3.0,Vista Ridge Addition,2491,10585,2002,987,148,29,Sold,,,http://www.redfin.com/TX/Fort-Worth/6901-Vista-Ridge-Dr-W-76132/home/32444447,NTREIS,13668519,N,Y,32.6499609,-97.4320091
PAST SALE,October-13-2017,Single Family Residential,6151 White Tail Trl,Fort Worth,TX,76132,234900,3,2.0,Quail Ridge Estates Add,1812,6839,2001,980,130,42,Sold,,,http://www.redfin.com/TX/Fort-Worth/6151-White-Tail-Trl-76132/home/32442881,NTREIS,13645702,N,Y,32.6460137,-97.4204548
PAST SALE,May-14-2018,Single Family Residential,6844 Beverly Glen Dr,Fort Worth,TX,76132,240000,3,2.0,Park Palisades Add,1953,7884,2001,767,123,37,Sold,,,http://www.redfin.com/TX/Fort-Worth/6844-Beverly-Glen-Dr-76132/home/32457517,NTREIS,13817373,N,Y,32.6514261,-97.4134904
PAST SALE,October-31-2017,Single Family Residential,7112 Deer Hollow Dr,Fort Worth,TX,76132,268900,3,2.0,Quail Ridge Estates Add,2070,6795,1998,962,130,42,Sold,,,http://www.redfin.com/TX/Fort-Worth/7112-Deer-Hollow-Dr-76132/home/32442895,NTREIS,13634555,N,Y,32.6476958,-97.4209617
PAST SALE,August-1-2017,Single Family Residential,3 Thornhill Rd,Benbrook,TX,76132,650000,4,3.5,Mont Del Estates Add,4200,19602,1975,1053,155,,Sold,,,http://www.redfin.com/TX/Benbrook/3-Thornhill-Rd-76132/home/31795350,NTREIS,13546791,N,Y,32.6880638,-97.4204126
PAST SALE,June-26-2017,Single Family Residential,5704 Ridgerock Rd,Fort Worth,TX,76132,294500,3,2.0,Overton South Add,2100,6708,2011,1089,140,,Sold,,,http://www.redfin.com/TX/Fort-Worth/5704-Ridgerock-Ct-76132/home/44637699,NTREIS,13540136,N,Y,32.6663091,-97.3993908
PAST SALE,June-21-2018,Single Family Residential,4700 Westlake Dr,Fort Worth,TX,76132,297977,4,2.0,Westcliff Add,2117,10542,1964,729,141,,Sold,,,http://www.redfin.com/TX/Fort-Worth/4700-Westlake-Dr-76132/home/32176504,NTREIS,13825047,N,Y,32.6781558,-97.3912717
PAST SALE,August-28-2017,Single Family Residential,4613 South Dr W,Fort Worth,TX,76132,115900,2,2.0,Westwood,1191,8712,1959,1026,97,,Sold,,,http://www.redfin.com/TX/Fort-Worth/4613-South-Dr-W-76132/home/32190917,NTREIS,13659129,N,Y,32.6698266,-97.3911028
PAST SALE,November-28-2017,Single Family Residential,5116 Stacey Ave,Fort Worth,TX,76132,239950,4,2.0,Westcliff Add,2147,11151,1967,934,112,,Sold,,,http://www.redfin.com/TX/Fort-Worth/5116-Stacey-Ave-76132/home/32176388,NTREIS,13686023,N,Y,32.6736802,-97.3882738
PAST SALE,April-26-2018,Single Family Residential,4708 highgrove Dr,Fort Worth,TX,76132,159900,3,2.0,westwood,1232,,1962,785,130,,Sold,,,http://www.redfin.com/TX/Fort-Worth/4708-Highgrove-Dr-76132/home/32191286,NTREIS,13793079,N,Y,32.6712913,-97.3938052
PAST SALE,January-12-2018,Single Family Residential,4709 Darla Dr,Fort Worth,TX,76132,100000,3,2.0,Westwood Add,1540,8799,1961,889,65,,Sold,,,http://www.redfin.com/TX/Fort-Worth/4709-Darla-Dr-76132/home/32191810,NTREIS,13749202,N,Y,32.6675016,-97.3940586
PAST SALE,August-24-2017,Single Family Residential,5732 Westhaven Dr,Fort Worth,TX,76132,164900,3,1.5,Westwood Add,1523,11021,1959,1030,108,,Sold,,,http://www.redfin.com/TX/Fort-Worth/5732-Westhaven-Dr-76132/home/32191841,NTREIS,13644410,N,Y,32.6653179,-97.39441
PAST SALE,July-24-2017,Single Family Residential,5224 Partridge Rd,Fort Worth,TX,76132,325000,4,3.0,Overton South Add,2900,17947,1977,1061,112,,Sold,,,http://www.redfin.com/TX/Fort-Worth/5224-Partridge-Rd-76132/home/31876942,NTREIS,13623332,N,Y,32.6729987,-97.3953676
PAST SALE,September-29-2017,Multi-Family (2-4 Unit),4916 Ledgestone Dr,Fort Worth,TX,76132,350000,5,4.0,Overton South Add,3254,13896,1983,994,108,,Sold,,,http://www.redfin.com/TX/Fort-Worth/4916-Ledgestone-Dr-76132/home/32328865,NTREIS,13654608,N,Y,32.675902,-97.394871
PAST SALE,December-8-2017,Single Family Residential,5722 Ridgerock Rd,Fort Worth,TX,76132,274500,3,2.0,Overton South,2107,6839,2012,924,130,,Sold,,,http://www.redfin.com/TX/Fort-Worth/5722-Ridgerock-Ct-76132/home/31877166,NTREIS,13737477,N,Y,32.6651734,-97.4000146
PAST SALE,August-29-2017,Single Family Residential,4801 Countryside Ct E,Fort Worth,TX,76132,365000,3,3.0,Overton South Add,3319,24045,1981,1025,110,,Sold,,,http://www.redfin.com/TX/Fort-Worth/4801-Countryside-Ct-E-76132/home/31876961,NTREIS,13647255,N,Y,32.6661796,-97.396381
PAST SALE,October-30-2017,Single Family Residential,4808 E Silent Ridge Ct E,Fort Worth,TX,76132,285000,4,3.0,Overton South Add,2565,16640,1983,963,111,,Sold,,,http://www.redfin.com/TX/Fort-Worth/4808-Silent-Ridge-Ct-E-76132/home/31877009,NTREIS,13695200,N,Y,32.6645122,-97.397859
PAST SALE,July-27-2017,Single Family Residential,4820 Darla Dr,Fort Worth,TX,76132,339000,4,3.0,Overton South Add,2791,15725,1980,1058,121,,Sold,,,http://www.redfin.com/TX/Fort-Worth/4820-Darla-Dr-76132/home/31877059,NTREIS,13614870,N,Y,32.6679111,-97.3972868
PAST SALE,July-7-2017,Multi-Family (2-4 Unit),5018 Ledgestone Dr,Fort Worth,TX,76132,169990,2,2.0,Overton South Add,1723,6970,1984,1078,99,,Sold,,,http://www.redfin.com/TX/Fort-Worth/5018-Ledgestone-Dr-76132/home/32328871,NTREIS,13581530,N,Y,32.6748142,-97.3965218
PAST SALE,September-22-2017,Single Family Residential,4713 Darla Dr,Fort Worth,TX,76132,116500,3,2.0,Westwood Add,1177,8799,1958,1001,99,,Sold,,,http://www.redfin.com/TX/Fort-Worth/4713-Darla-Dr-76132/home/32191803,NTREIS,13665187,N,Y,32.6675306,-97.3943119
PAST SALE,September-22-2017,Multi-Family (2-4 Unit),5404 Ledgestone Dr,Fort Worth,TX,76132,224800,3,2.0,Overton South,2246,8233,1984,1001,100,,Sold,,,http://www.redfin.com/TX/Fort-Worth/5404-Ledgestone-Dr-76132/home/31877016,NTREIS,13673265,N,Y,32.670518,-97.398501
PAST SALE,November-20-2017,Single Family Residential,5100 Paint Rock Ct,Fort Worth,TX,76132,270000,3,2.0,Overton South Add,3268,14462,1978,942,83,,Sold,,,http://www.redfin.com/TX/Fort-Worth/5100-Paint-Rock-Ct-76132/home/31876889,NTREIS,13674803,N,Y,32.6740951,-97.3950086
PAST SALE,June-27-2018,Single Family Residential,5212 South Dr,Fort Worth,TX,76132,199000,3,1.5,Westcliff Add,1846,10106,1972,723,108,,Sold,,,http://www.redfin.com/TX/Fort-Worth/5212-South-Dr-76132/home/32176444,NTREIS,13737657,N,Y,32.6729058,-97.3894983
PAST SALE,September-15-2017,Single Family Residential,5328 Westhaven Dr,Fort Worth,TX,76132,140000,3,2.0,Westwood Add,1440,10149,1960,1008,97,,Sold,,,http://www.redfin.com/TX/Fort-Worth/5328-Westhaven-Dr-76132/home/32190833,NTREIS,13652633,N,Y,32.6707782,-97.3905961
PAST SALE,December-7-2017,Townhouse,5865 Westhaven Dr,Fort Worth,TX,76132,175000,2,2.0,Westhaven Twnhms,1726,5227,1984,925,101,180,Sold,,,http://www.redfin.com/TX/Fort-Worth/5865-Westhaven-Dr-76132/home/32351967,NTREIS,13709714,N,Y,32.6630866,-97.3983655
PAST SALE,July-31-2017,Single Family Residential,6825 Glen Meadow Dr,Fort Worth,TX,76132,538000,4,3.5,Bellaire Park North,5132,10846,1992,1054,105,,Sold,,,http://www.redfin.com/TX/Fort-Worth/6825-Glen-Meadow-Dr-76132/home/32372691,NTREIS,13599059,N,Y,32.6743701,-97.4319246
PAST SALE,October-20-2017,Multi-Family (2-4 Unit),4303 Gorman Dr,Fort Worth,TX,76132,149900,4,4.0,Westcliff Add,2192,6578,1969,973,68,,Sold,,,http://www.redfin.com/TX/Fort-Worth/4303-Gorman-Dr-76132/home/31044926,NTREIS,13572603,N,Y,32.6707239,-97.3870494
PAST SALE,August-7-2017,Multi-Family (2-4 Unit),5222 Cordova Ave,Fort Worth,TX,76132,299900,8,8.0,Westcliff Add,3848,15507,1975,1047,78,,Sold,,,http://www.redfin.com/TX/Fort-Worth/5222-Cordova-Ave-76132/home/32176294,NTREIS,13650254,N,Y,32.6714693,-97.3863798
PAST SALE,August-14-2017,Townhouse,5850 Pecan Chase,Benbrook,TX,76132,185000,1,1.5,Waterwood Place,1323,3746,1999,1040,140,154,Sold,,,http://www.redfin.com/TX/Fort-Worth/5850-Pecan-Chase-76132/home/32372830,NTREIS,13640921,N,Y,32.694439,-97.424805
PAST SALE,March-30-2018,Single Family Residential,6716 Oak Hill Dr,Fort Worth,TX,76132,1150000,5,5.5,Mira Vista Add,5754,18295,2007,812,200,102,Sold,,,http://www.redfin.com/TX/Fort-Worth/6716-Oak-Hill-Dr-76132/home/32428225,NTREIS,13675420,N,Y,32.650774,-97.4360651
PAST SALE,March-2-2018,Single Family Residential,6809 Saint Andrews Ct,Fort Worth,TX,76132,1125000,4,4.5,Mira Vista Add,4616,18731,2000,840,244,183,Sold,,,http://www.redfin.com/TX/Fort-Worth/6809-St-Andrews-Ct-76132/home/32434621,NTREIS,13725580,N,Y,32.6539891,-97.4362552
PAST SALE,May-2-2018,Single Family Residential,6817 Saint Andrews Ct,Fort Worth,TX,76132,1495000,5,5.5,Mira Vista,5786,17380,2010,779,258,207,Sold,,,http://www.redfin.com/TX/Fort-Worth/6817-St-Andrews-Ct-76132/home/32434623,NTREIS,13798326,N,Y,32.6543516,-97.4368045
PAST SALE,February-21-2018,Vacant Land,6701 Foxpointe Rd,Fort Worth,TX,76132,998500,0,,Mira Vista Add,,49179,,849,,179,Sold,,,http://www.redfin.com/TX/Fort-Worth/6701-Foxpointe-Rd-76132/home/32395400,NTREIS,13071402,N,Y,32.659431,-97.43667
PAST SALE,April-30-2018,Single Family Residential,6711 Canyon Crest Dr,Fort Worth,TX,76132,259900,4,2.0,Hulen Bend Estates Add,2388,10280,1997,781,109,45,Sold,,,http://www.redfin.com/TX/Fort-Worth/6711-Canyon-Crest-Dr-76132/home/32433831,NTREIS,13813121,N,Y,32.6518902,-97.4097895
PAST SALE,March-8-2018,Single Family Residential,6412 High Brook Dr,Fort Worth,TX,76132,268000,4,2.5,Hulen Bend Estates Add,2846,8059,1997,834,94,45,Sold,,,http://www.redfin.com/TX/Fort-Worth/6412-High-Brook-Dr-76132/home/32434229,NTREIS,13768065,N,Y,32.6573714,-97.4153731
PAST SALE,August-28-2017,Single Family Residential,6616 Firestone Rd,Fort Worth,TX,76132,484900,4,2.5,Mira Vista,2306,,1997,1026,210,251,Sold,,,http://www.redfin.com/TX/Fort-Worth/6616-Firestone-Rd-76132/home/32434689,NTREIS,13556567,N,Y,32.6551427,-97.4330864
PAST SALE,August-24-2017,Vacant Land,6808 Oak Hill Dr,Fort Worth,TX,76132,349900,0,,Mira Vista Add,,29272,,1030,,175,Sold,,,http://www.redfin.com/TX/Fort-Worth/6808-Oak-Hill-Dr-76132/home/32428215,NTREIS,13642113,N,Y,32.6520409,-97.436071
PAST SALE,August-30-2017,Single Family Residential,7020 Brierhollow Ct,Fort Worth,TX,76132,414900,4,3.0,Briercliff Estates Add,3012,9148,2000,1024,138,38,Sold,,,http://www.redfin.com/TX/Fort-Worth/7020-Brierhollow-Ct-76132/home/32465227,NTREIS,13598243,N,Y,32.6466597,-97.4314176
PAST SALE,September-6-2018,Single Family Residential,6205 Stockton Dr,Fort Worth,TX,76132,176000,3,2.0,Hulen Bend Add,1290,5619,2000,652,136,,Sold,,,http://www.redfin.com/TX/Fort-Worth/6205-Stockton-Dr-76132/home/32479784,NTREIS,13893536,N,Y,32.660802,-97.4153437
PAST SALE,May-14-2018,Vacant Land,6904 Sanctuary Ln,Fort Worth,TX,76132,525000,0,,Mira Vista Add,,45302,,767,,178,Sold,,,http://www.redfin.com/TX/Fort-Worth/6904-Sanctuary-Ln-76132/home/32465371,NTREIS,13770901,N,Y,32.6533338,-97.4444632
PAST SALE,February-16-2018,Single Family Residential,6925 Brookvale Rd,Fort Worth,TX,76132,270000,3,2.0,Quail Ridge Estates Add,2037,9017,1987,854,133,,Sold,,,http://www.redfin.com/TX/Fort-Worth/6925-Brookvale-Rd-76132/home/32384186,NTREIS,13660141,N,Y,32.6511044,-97.4249327
PAST SALE,January-15-2018,Townhouse,6768 Lost Star Ln,Fort Worth,TX,76132,336944,2,1.5,Bellaire Village,2226,,2017,886,151,83,Sold,,,http://www.redfin.com/TX/Fort-Worth/6768-Lost-Star-Ln-76132/home/31226463,NTREIS,13645682,N,Y,32.6685987,-97.4287612
PAST SALE,July-6-2018,Single Family Residential,29 Mont Dr,Benbrook,TX,76132,409000,4,2.5,Mont Del Estates Add,2380,20299,1972,714,172,,Sold,,,http://www.redfin.com/TX/Benbrook/29-Mont-Dr-76132/home/31795411,NTREIS,13836289,N,Y,32.6852488,-97.4157695
PAST SALE,August-20-2018,Single Family Residential,4113 Lake Breeze Dr,Benbrook,TX,76132,399500,3,2.5,Country Day Estates,2942,10454,1983,669,136,,Sold,,,http://www.redfin.com/TX/Benbrook/4113-Lake-Breeze-Ct-76132/home/31501810,NTREIS,13832868,N,Y,32.6919979,-97.4227299
PAST SALE,July-19-2018,Single Family Residential,6344 Stockton Dr,Fort Worth,TX,76132,200000,3,2.0,Hulen Bend Add,1655,6011,2001,701,121,,Sold,,,http://www.redfin.com/TX/Fort-Worth/6344-Stockton-Dr-76132/home/32479815,NTREIS,13867668,N,Y,32.6579628,-97.4163372
PAST SALE,September-7-2018,Single Family Residential,6828 Trinity Landing Dr N,Fort Worth,TX,76132,460000,4,2.5,Bellaire Park North,3512,13591,1992,651,131,2,Sold,,,http://www.redfin.com/TX/Fort-Worth/6828-Trinity-Landing-Dr-N-76132/home/32372770,NTREIS,13895570,N,Y,32.6756096,-97.4321147
PAST SALE,June-18-2018,Single Family Residential,6909 Meadowside Rd S,Fort Worth,TX,76132,329900,3,2.5,Quail Ridge Estates Add,2386,9365,1996,732,138,3,Sold,,,http://www.redfin.com/TX/Fort-Worth/6909-Meadowside-Rd-S-76132/home/32423194,NTREIS,13833974,N,Y,32.6510332,-97.426876
PAST SALE,September-29-2017,Townhouse,5883 Pecan Chase,Benbrook,TX,76132,229000,3,3.0,Waterwood Place,1810,4269,1998,994,127,154,Sold,,,http://www.redfin.com/TX/Fort-Worth/5883-Pecan-Chase-76132/home/32372842,NTREIS,13643171,N,Y,32.693694,-97.424488
PAST SALE,January-24-2018,Single Family Residential,7613 Ramble Wood Trl,Fort Worth,TX,76132,307000,3,2.0,Quail Ridge Estates Add,2124,8625,1992,877,145,,Sold,,,http://www.redfin.com/TX/Fort-Worth/7613-Ramble-Wood-Trl-76132/home/32384451,NTREIS,13744918,N,Y,32.6483338,-97.4250171
PAST SALE,October-31-2017,Single Family Residential,6829 Lahontan Dr,Fort Worth,TX,76132,1399000,6,7.0,Mira Vista Add,8016,28358,2001,962,175,156,Sold,,,http://www.redfin.com/TX/Fort-Worth/6829-Lahontan-Dr-76132/home/32457004,NTREIS,13629100,N,Y,32.6494632,-97.4364803
PAST SALE,May-31-2018,Single Family Residential,6617 Sahalee Dr,Fort Worth,TX,76132,665000,3,3.5,Mira Vista Add,3487,17337,1994,750,191,179,Sold,,,http://www.redfin.com/TX/Fort-Worth/6617-Sahalee-Dr-76132/home/32413983,NTREIS,13793992,N,Y,32.6559629,-97.4368362
PAST SALE,August-10-2018,Single Family Residential,6629 Meadow Haven Dr,Fort Worth,TX,76132,439900,3,2.5,Meadows West Add,3118,15551,1982,679,141,2,Sold,,,http://www.redfin.com/TX/Fort-Worth/6629-Meadow-Haven-Dr-76132/home/31781939,NTREIS,13876083,N,Y,32.6779548,-97.4271611
PAST SALE,July-25-2018,Single Family Residential,6832 Coldwater Canyon Rd,Fort Worth,TX,76132,225000,3,2.0,Park Palisades Add,2024,7231,1999,695,111,38,Sold,,,http://www.redfin.com/TX/Fort-Worth/6832-Cold-Water-Canyon-Rd-76132/home/32457505,NTREIS,13872420,N,Y,32.6490921,-97.4131778
PAST SALE,August-27-2018,Single Family Residential,6329 Southern Hills Dr,Fort Worth,TX,76132,299999,3,2.5,Monarch Hills Add,2302,7797,2000,662,130,54,Sold,,,http://www.redfin.com/TX/Fort-Worth/6329-Southern-Hills-Dr-76132/home/32458118,NTREIS,13855641,N,Y,32.6578438,-97.430467
PAST SALE,January-29-2018,Single Family Residential,48 Legend Rd,Benbrook,TX,76132,282000,3,3.0,Meadows West Add,2366,6970,1979,872,119,2,Sold,,,http://www.redfin.com/TX/Benbrook/48-Legend-Rd-76132/home/31781978,NTREIS,13673491,N,Y,32.6900469,-97.4224747
PAST SALE,December-27-2017,Single Family Residential,6701 Clear Spring Dr,Fort Worth,TX,76132,479000,5,4.0,Bellaire Park North,4114,12110,1993,905,116,,Sold,,,http://www.redfin.com/TX/Fort-Worth/6701-Clear-Spring-Dr-76132/home/32415629,NTREIS,13649170,N,Y,32.6721871,-97.4269182
PAST SALE,January-23-2018,Single Family Residential,84 Legend Rd,Benbrook,TX,76132,350000,4,2.5,Meadows West Add,2949,12632,1986,878,119,,Sold,,,http://www.redfin.com/TX/Benbrook/84-Legend-Rd-76132/home/31781934,NTREIS,13722995,N,Y,32.6886739,-97.4249826
PAST SALE,March-16-2018,Townhouse,6628 Shady Glen Way,Benbrook,TX,76132,374000,3,3.0,Waterwood Place,2725,5009,2014,826,137,154,Sold,,,http://www.redfin.com/TX/Benbrook/6628-Shady-Glen-Way-76132/home/31097734,NTREIS,13723337,N,Y,32.69377,-97.423314
PAST SALE,March-15-2018,Vacant Land,6801 Oak Hill Dr,Fort Worth,TX,76132,299000,0,,Mira Vista Add,,19428,,827,,175,Sold,,,http://www.redfin.com/TX/Fort-Worth/6801-Oak-Hill-Dr-76132/home/32428221,NTREIS,13484588,N,Y,32.651722,-97.436818
PAST SALE,August-6-2018,Single Family Residential,4105 Lake Breeze Ct,Benbrook,TX,76132,384000,3,3.0,Country Day Estates,2675,12502,1991,683,144,,Sold,,,http://www.redfin.com/TX/Fort-Worth/4105-Lake-Breeze-Ct-76132/home/32333668,NTREIS,13881161,N,Y,32.6923179,-97.423486
PAST SALE,April-30-2018,Single Family Residential,5733 Westhaven Dr,Fort Worth,TX,76132,159999,3,2.0,Westwood Add,1228,10498,1959,781,130,,Sold,,,http://www.redfin.com/TX/Fort-Worth/5733-Westhaven-Dr-76132/home/32191938,NTREIS,13752082,N,Y,32.6650484,-97.3940491
PAST SALE,May-30-2018,Single Family Residential,6821 Saucon Valley Dr,Fort Worth,TX,76132,1297000,4,3.5,Mira Vista Add,4249,17380,2014,751,305,183,Sold,,,http://www.redfin.com/TX/Fort-Worth/6821-Saucon-Valley-Dr-76132/home/32456990,NTREIS,13831939,N,Y,32.6504533,-97.4414736
PAST SALE,August-15-2018,Single Family Residential,5104 Trinity Landing Dr W,Fort Worth,TX,76132,475000,4,3.5,Bellaire Park North,3476,12284,1993,674,137,2,Sold,,,http://www.redfin.com/TX/Fort-Worth/5104-Trinity-Landing-Dr-W-76132/home/32415585,NTREIS,13858147,N,Y,32.6731106,-97.4335512
PAST SALE,July-30-2018,Single Family Residential,6632 Crooked Stick Dr,Fort Worth,TX,76132,639000,4,3.0,Mira Vista Add,3007,12415,1996,690,213,183,Sold,,,http://www.redfin.com/TX/Fort-Worth/6632-Crooked-Stick-Dr-76132/home/32421386,NTREIS,13849870,N,Y,32.6550417,-97.4444103
PAST SALE,February-9-2018,Single Family Residential,6800 Desert Highlands Dr,Fort Worth,TX,76132,659900,4,3.5,Mira Vista Add,3189,7449,1998,861,207,254,Sold,,,http://www.redfin.com/TX/Fort-Worth/6800-Desert-Highlands-Dr-76132/home/32434676,NTREIS,13746969,N,Y,32.6524964,-97.4332977
PAST SALE,September-11-2018,Single Family Residential,6500 Castle Pines Rd,Fort Worth,TX,76132,560000,3,3.5,Mira Vista Add,2900,11674,1992,647,193,183,Sold,,,http://www.redfin.com/TX/Fort-Worth/6500-Castle-Pines-Rd-76132/home/32394821,NTREIS,13876480,N,Y,32.6604631,-97.4310796
PAST SALE,November-17-2017,Townhouse,5838 Westhaven Dr,Fort Worth,TX,76132,149900,2,2.0,Westhaven Twnhms,1279,3877,1986,945,117,180,Sold,,,http://www.redfin.com/TX/Fort-Worth/5838-Westhaven-Dr-76132/home/32351975,NTREIS,13705531,N,Y,32.6636193,-97.3966966
PAST SALE,September-4-2018,Single Family Residential,6708 Blue Meadow Dr,Fort Worth,TX,76132,455000,4,3.0,Meadows West Add,3192,11935,1984,654,143,,Sold,,,http://www.redfin.com/TX/Fort-Worth/6708-Blue-Meadow-Dr-76132/home/32336923,NTREIS,13873146,N,Y,32.6798372,-97.4274252
PAST SALE,April-30-2018,Single Family Residential,6832 Glen Meadow Dr,Fort Worth,TX,76132,414900,4,3.5,Bellaire Park North,3946,11805,1986,781,105,,Sold,,,http://www.redfin.com/TX/Fort-Worth/6832-Glen-Meadow-Dr-76132/home/32372696,NTREIS,13764681,N,Y,32.6747739,-97.432516
PAST SALE,August-1-2018,Single Family Residential,5820 Singletree Ct,Fort Worth,TX,76132,1199999,5,5.5,Mira Vista,6015,20909,2002,688,200,202,Sold,,,http://www.redfin.com/TX/Fort-Worth/5820-Singletree-Ct-76132/home/32436088,NTREIS,13819458,N,Y,32.6645951,-97.4372693
PAST SALE,September-6-2018,Single Family Residential,6725 Fall Meadow Dr,Fort Worth,TX,76132,299900,4,2.5,Hulen Bend Estates Add,3147,9104,2000,652,95,42,Sold,,,http://www.redfin.com/TX/Fort-Worth/6725-Fall-Meadow-Dr-76132/home/32457837,NTREIS,13888376,N,Y,32.6531459,-97.4126827
PAST SALE,July-20-2018,Single Family Residential,5113 N Branch Dr,Fort Worth,TX,76132,495000,4,3.0,Bellaire Park North,3156,15072,1994,700,157,,Sold,,,http://www.redfin.com/TX/Fort-Worth/5113-N-Branch-Dr-76132/home/32415584,NTREIS,13859327,N,Y,32.672148,-97.4309106
PAST SALE,August-13-2018,Single Family Residential,6728 Saint Andrews Rd,Fort Worth,TX,76132,1244000,4,5.0,Mira Vista Add,5788,18469,1999,676,215,179,Sold,,,http://www.redfin.com/TX/Fort-Worth/6728-St-Andrews-Rd-76132/home/32434615,NTREIS,13823273,N,Y,32.6526194,-97.4341849
PAST SALE,October-16-2017,Townhouse,6764 Lost Star Ln,Fort Worth,TX,76132,371083,1,2.5,Bellaire Village,2400,,2017,977,155,83,Sold,,,http://www.redfin.com/TX/Fort-Worth/6764-Lost-Star-Ln-76132/home/31226462,NTREIS,13713578,N,Y,32.6686047,-97.4286506
PAST SALE,October-5-2017,Single Family Residential,5109 Stacey Ave,Fort Worth,TX,76132,232000,3,2.0,Westcliff Add,1984,10977,1965,988,117,,Sold,,,http://www.redfin.com/TX/Fort-Worth/5109-Stacey-Ave-76132/home/32176399,NTREIS,13673048,N,Y,32.6740587,-97.3878094
PAST SALE,December-4-2017,Single Family Residential,5025 Still Meadow Dr,Fort Worth,TX,76132,624900,5,5.0,Meadows West Add,5172,17163,1992,928,121,3,Sold,,,http://www.redfin.com/TX/Fort-Worth/5025-Still-Meadow-Dr-76132/home/32401158,NTREIS,13696446,N,Y,32.6739279,-97.4245736
PAST SALE,June-23-2017,Single Family Residential,6713 Medinah Dr,Fort Worth,TX,76132,649000,3,3.5,Mira Vista Add,3660,7057,2007,1092,177,251,Sold,,,http://www.redfin.com/TX/Fort-Worth/6713-Medinah-Dr-76132/home/32434657,NTREIS,13590511,N,Y,32.6538065,-97.4337835
PAST SALE,February-9-2018,Single Family Residential,6308 Dawn Hills Dr,Fort Worth,TX,76132,469000,4,3.5,Monarch Hills Add,2948,12110,2001,861,159,54,Sold,,,http://www.redfin.com/TX/Fort-Worth/6308-Dawn-Hill-Dr-76132/home/32457941,NTREIS,13729733,N,Y,32.658684,-97.428201
PAST SALE,April-13-2018,Single Family Residential,6533 Castle Pines Rd,Fort Worth,TX,76132,728000,4,4.5,Mira Vista Add,4040,15769,1989,798,180,188,Sold,,,http://www.redfin.com/TX/Fort-Worth/6533-Castle-Pines-Rd-76132/home/32394827,NTREIS,13785160,N,Y,32.6597992,-97.4322837
PAST SALE,April-3-2018,Single Family Residential,6801 River Bend Rd,Fort Worth,TX,76132,565000,4,3.5,Meadows West Add,3269,15246,1981,808,173,,Sold,,,http://www.redfin.com/TX/Fort-Worth/6801-River-Bend-Rd-76132/home/32329194,NTREIS,13756070,N,Y,32.6777956,-97.4304036
PAST SALE,April-30-2018,Single Family Residential,6950 Briarwood Dr,Fort Worth,TX,76132,225000,4,2.0,Hulen Bend Estates Add,2052,8712,1996,781,110,45,Sold,,,http://www.redfin.com/TX/Fort-Worth/6950-Briarwood-Dr-76132/home/32433880,NTREIS,13796160,N,Y,32.6555506,-97.41433
PAST SALE,August-25-2017,Single Family Residential,4908 Woodbend Ct,Fort Worth,TX,76132,489900,4,3.5,Meadows West Add,3316,12850,1990,1029,148,,Sold,,,http://www.redfin.com/TX/Fort-Worth/4908-Woodbend-Ct-76132/home/32401230,NTREIS,13637889,N,Y,32.676416,-97.4270238
PAST SALE,December-15-2017,Single Family Residential,6724 Trail Cliff Way,Fort Worth,TX,76132,250000,3,2.0,Hulen Bend Estates Add,2323,8364,1997,917,108,45,Sold,,,http://www.redfin.com/TX/Fort-Worth/6724-Trail-Cliff-Way-76132/home/32433857,NTREIS,13698540,N,Y,32.6522372,-97.4128305
PAST SALE,December-11-2017,Single Family Residential,6715 Bluffview Dr,Fort Worth,TX,76132,229900,4,2.0,Hulen Bend Estates Add,2251,8015,1997,921,102,43,Sold,,,http://www.redfin.com/TX/Fort-Worth/6715-Bluffview-Dr-76132/home/32433932,NTREIS,13716171,N,Y,32.6522999,-97.4106553
PAST SALE,January-5-2018,Multi-Family (2-4 Unit),5724 Ridgerock Rd,Fort Worth,TX,76132,299900,3,2.0,Overton South Add,2220,7144,2013,896,135,,Sold,,,http://www.redfin.com/TX/Fort-Worth/5724-Ridgerock-Ct-76132/home/67282230,NTREIS,13737726,N,Y,32.6650129,-97.4001605
PAST SALE,September-15-2017,Single Family Residential,6200 Troon Rd,Fort Worth,TX,76132,709000,5,5.5,Mira Vista Add,4628,13373,1993,1008,153,183,Sold,,,http://www.redfin.com/TX/Fort-Worth/6200-Troon-Rd-76132/home/32395031,NTREIS,13529299,N,Y,32.6608997,-97.4326005
PAST SALE,August-3-2017,Single Family Residential,6705 E Park Dr,Fort Worth,TX,76132,429000,3,3.0,Bellaire Park North,3257,11413,1995,1051,132,3,Sold,,,http://www.redfin.com/TX/Fort-Worth/6705-E-Park-Dr-76132/home/32415663,NTREIS,13566558,N,Y,32.67133,-97.4269393
PAST SALE,August-11-2017,Townhouse,7100 Lost Star Ct,Fort Worth,TX,76132,344075,2,3.0,Bellaire Village,2220,,2016,1043,155,83,Sold,,,http://www.redfin.com/TX/Fort-Worth/7100-Lost-Star-Ct-76132/home/31226459,NTREIS,13517156,N,Y,32.668942,-97.428565
PAST SALE,June-26-2017,Vacant Land,5912 Cypress Point Dr,Fort Worth,TX,76132,525000,0,,Mira Vista Add,,31799,,1089,,156,Sold,,,http://www.redfin.com/TX/Fort-Worth/5900-Cypress-Point-Dr-76132/home/31031685,NTREIS,13484342,N,Y,32.664838,-97.434544
PAST SALE,March-7-2018,Single Family Residential,5706 Ridgerock Rd,Fort Worth,TX,76132,299850,3,2.0,Overton South Add,2100,6534,2011,835,143,,Sold,,,http://www.redfin.com/TX/Fort-Worth/5706-Ridgerock-Ct-76132/home/31876998,NTREIS,13764908,N,Y,32.6661987,-97.39944
PAST SALE,September-24-2018,Single Family Residential,6821 Sawgrass Dr,Fort Worth,TX,76132,799000,3,3.0,Mira Vista Add,3121,14593,2001,634,256,183,Sold,,,http://www.redfin.com/TX/Fort-Worth/6821-Sawgrass-Dr-76132/home/32445088,NTREIS,13918908,N,Y,32.6506633,-97.4405228
PAST SALE,January-12-2018,Single Family Residential,5813 Westhaven Dr,Fort Worth,TX,76132,144900,4,1.5,Westwood Add,1450,10498,1960,889,100,,Sold,,,http://www.redfin.com/TX/Fort-Worth/5813-Westhaven-Dr-76132/home/32191956,NTREIS,13733170,N,Y,32.6643607,-97.394834
PAST SALE,November-20-2017,Single Family Residential,6721 River Bend Rd,Fort Worth,TX,76132,380000,4,2.5,Meadows West Add,2760,14157,1979,942,138,,Sold,,,http://www.redfin.com/TX/Fort-Worth/6721-River-Bend-Rd-76132/home/31781905,NTREIS,13708950,N,Y,32.6777861,-97.429453
PAST SALE,November-30-2017,Single Family Residential,6716 Briarwood Dr,Fort Worth,TX,76132,279500,4,2.5,Hulen Bend Estates Add,2848,6621,1998,932,98,43,Sold,,,http://www.redfin.com/TX/Fort-Worth/6716-Briarwood-Dr-76132/home/32445421,NTREIS,13707633,N,Y,32.6554648,-97.4102119
PAST SALE,July-11-2017,Single Family Residential,6709 Mira Vista Blvd,Fort Worth,TX,76132,609900,5,4.0,Mira Vista Add,4586,18687,1997,1074,133,167,Sold,,,http://www.redfin.com/TX/Fort-Worth/6709-Mira-Vista-Blvd-76132/home/32413989,NTREIS,13470932,N,Y,32.6570323,-97.4356426
PAST SALE,April-13-2018,Single Family Residential,7008 Golden Gate Dr E,Fort Worth,TX,76132,399900,4,2.0,Bellaire Park North,2822,13068,1988,798,142,3,Sold,,,http://www.redfin.com/TX/Fort-Worth/7008-Golden-Gate-Dr-E-76132/home/32384862,NTREIS,13791175,N,Y,32.6702875,-97.4286081
PAST SALE,April-3-2018,Single Family Residential,14 Windward Rd,Benbrook,TX,76132,499000,3,3.0,Mont Del Estates Add,5313,19254,1977,808,94,3,Sold,,,http://www.redfin.com/TX/Fort-Worth/14-Windward-Rd-76132/home/31795374,NTREIS,13703731,N,Y,32.685812,-97.422324
PAST SALE,April-27-2018,Single Family Residential,5117 Cordova Ave,Fort Worth,TX,76132,250000,4,2.0,Westcliff Add,2170,10803,1976,784,115,,Sold,,,http://www.redfin.com/TX/Fort-Worth/5117-Cordova-Ave-76132/home/32176324,NTREIS,13791791,N,Y,32.6729358,-97.3867539
PAST SALE,August-21-2017,Townhouse,5845 Westhaven Dr Unit D,Fort Worth,TX,76132,155000,2,2.0,Westhaven Twnhms,1370,4182,1985,1033,113,180,Sold,,,http://www.redfin.com/TX/Fort-Worth/5845-Westhaven-Dr-76132/unit-D/home/32351965,NTREIS,13569938,N,Y,32.6630976,-97.3967016
PAST SALE,August-17-2017,Single Family Residential,6609 Harbour Town Ln,Fort Worth,TX,76132,979000,4,5.5,Mira Vista Add,5481,21127,2001,1037,179,175,Sold,,,http://www.redfin.com/TX/Fort-Worth/6609-Harbour-Town-Ln-76132/home/32457023,NTREIS,13647308,N,Y,32.6474343,-97.4375957
PAST SALE,July-19-2017,Single Family Residential,31 Bounty Rd E,Benbrook,TX,76132,339500,3,2.0,Mont Del Estates Add,2151,20125,1966,1066,158,3,Sold,,,http://www.redfin.com/TX/Benbrook/31-Bounty-Rd-E-76132/home/31795426,NTREIS,13608136,N,Y,32.6866731,-97.4153648
PAST SALE,April-9-2018,Single Family Residential,4628 Highgrove Dr,Fort Worth,TX,76132,175000,3,2.0,Westwood Add,1290,10367,1962,802,136,,Sold,,,http://www.redfin.com/TX/Fort-Worth/4628-Highgrove-Dr-76132/home/32191277,NTREIS,13791578,N,Y,32.6711814,-97.3919473
PAST SALE,December-22-2017,Single Family Residential,4612 Darla Dr,Fort Worth,TX,76132,185000,3,2.0,Westwood Add,1568,9845,1958,910,118,,Sold,,,http://www.redfin.com/TX/Fort-Worth/4612-Darla-Dr-76132/home/32191821,NTREIS,13653870,N,Y,32.6677155,-97.3926651
PAST SALE,October-17-2017,Multi-Family (2-4 Unit),4301 Gorman Dr,Fort Worth,TX,76132,149900,4,4.0,Westcliff Add,2192,7579,1969,976,68,,Sold,,,http://www.redfin.com/TX/Fort-Worth/4301-Gorman-Dr-76132/home/31044927,NTREIS,13572601,N,Y,32.6706771,-97.3869122
PAST SALE,September-8-2017,Single Family Residential,4800 Westhaven Dr,Fort Worth,TX,76132,245000,4,2.0,Overton South Add,2205,13721,1976,1015,111,,Sold,,,http://www.redfin.com/TX/Fort-Worth/4800-Westhaven-Dr-76132/home/31875076,NTREIS,13667745,N,Y,32.6765416,-97.3933407
PAST SALE,April-30-2018,Single Family Residential,6948 Stockton Dr,Fort Worth,TX,76132,213500,3,2.0,Oakmont Meadows Add,1873,6098,2005,781,114,,Sold,,,http://www.redfin.com/TX/Fort-Worth/6948-Stockton-Dr-76132/home/32473344,NTREIS,13794354,N,Y,32.6612527,-97.4147735
PAST SALE,December-15-2017,Single Family Residential,6209 Stockton Dr,Fort Worth,TX,76132,165000,3,2.0,Hulen Bend Add,1637,5706,2000,917,101,,Sold,,,http://www.redfin.com/TX/Fort-Worth/6209-Stockton-Dr-76132/home/32479782,NTREIS,13715281,N,Y,32.6606578,-97.4153982
PAST SALE,June-6-2018,Single Family Residential,6924 Brookvale Rd,Fort Worth,TX,76132,339000,3,2.0,Quail Ridge Estates Add,2282,9017,1988,744,149,2,Sold,,,http://www.redfin.com/TX/Fort-Worth/6924-Brookvale-Rd-76132/home/32384374,NTREIS,13815486,N,Y,32.650989,-97.4253974
PAST SALE,November-1-2017,Single Family Residential,6604 Stockton Dr,Fort Worth,TX,76132,184000,4,2.0,Hulen Bend Add,1758,6011,2002,961,105,,Sold,,,http://www.redfin.com/TX/Fort-Worth/6604-Stockton-Dr-76132/home/32480254,NTREIS,13697589,N,Y,32.6556263,-97.4160195
PAST SALE,November-30-2017,Single Family Residential,7100 Aspen Wood Trl,Fort Worth,TX,76132,345000,4,2.5,Quail Ridge Estates Add,2807,9975,1989,932,123,50,Sold,,,http://www.redfin.com/TX/Fort-Worth/7100-Aspen-Wood-Trl-76132/home/32384143,NTREIS,13702219,N,Y,32.6480826,-97.4233274
PAST SALE,April-9-2018,Single Family Residential,6917 Shadow Creek Ct,Fort Worth,TX,76132,675000,3,2.0,Mira Vista Add,3007,16814,1995,802,224,179,Sold,,,http://www.redfin.com/TX/Fort-Worth/6917-Shadow-Creek-Ct-76132/home/32418369,NTREIS,13741716,N,Y,32.6590817,-97.441051
PAST SALE,August-28-2017,Single Family Residential,6957 Laurel Valley Dr,Fort Worth,TX,76132,995000,4,5.0,Mira Vista,6563,20517,1995,1026,152,156,Sold,,,http://www.redfin.com/TX/Fort-Worth/6957-Laurel-Valley-Dr-76132/home/32421430,NTREIS,13531558,N,Y,32.6651595,-97.4410721
PAST SALE,June-30-2017,Single Family Residential,6941 Laurel Valley Dr,Fort Worth,TX,76132,1339000,5,5.5,Mira Vista Add,6393,16379,1998,1085,209,175,Sold,,,http://www.redfin.com/TX/Fort-Worth/6941-Laurel-Valley-Dr-76132/home/32421418,NTREIS,13583158,N,Y,32.6638455,-97.441851
PAST SALE,June-12-2018,Single Family Residential,6937 Laurel Valley Dr,Fort Worth,TX,76132,1199000,4,4.5,Mira Vista,4916,15769,1994,738,244,207,Sold,,,http://www.redfin.com/TX/Fort-Worth/6937-Laurel-Valley-Dr-76132/home/32421417,NTREIS,13828793,N,Y,32.6634533,-97.4416847
PAST SALE,December-8-2017,Single Family Residential,6717 Castle Creek Dr,Fort Worth,TX,76132,515000,4,3.5,Bellaire Park North,3683,9714,1992,924,140,3,Sold,,,http://www.redfin.com/TX/Fort-Worth/6717-Castle-Creek-Dr-76132/home/32384856,NTREIS,13697818,N,Y,32.6707152,-97.4295375
PAST SALE,November-30-2017,Single Family Residential,4850 Countryside Ct W,Fort Worth,TX,76132,305000,4,3.0,Overton South Add,2936,17729,1981,932,104,,Sold,,,http://www.redfin.com/TX/Fort-Worth/4850-Countryside-Ct-W-76132/home/31877067,NTREIS,13681097,N,Y,32.6669727,-97.3978168
PAST SALE,June-20-2017,Townhouse,7109 Rose Quartz Ct,Fort Worth,TX,76132,312502,2,2.5,Bellaire Village,2388,,2016,1095,131,83,Sold,,,http://www.redfin.com/TX/Fort-Worth/7109-Rose-Quartz-Ct-76132/home/31226446,NTREIS,13425055,N,Y,32.668907,-97.427696
PAST SALE,December-8-2017,Condo/Co-op,6172 Haley Ln,Fort Worth,TX,76132,247900,3,2.0,Villas On The Bluff Condo,1741,7013,1997,924,142,335,Sold,,,http://www.redfin.com/TX/Fort-Worth/6172-Haley-Ln-76132/home/32447189,NTREIS,13720353,N,Y,32.673424,-97.422329
PAST SALE,April-30-2018,Townhouse,5856 Westhaven Dr,Fort Worth,TX,76132,159000,2,2.0,Westhaven Twnhms,1181,3441,1983,781,135,150,Sold,,,http://www.redfin.com/TX/Fort-Worth/5856-Westhaven-Dr-76132/home/32351987,NTREIS,13805936,N,Y,32.6635426,-97.3979331
PAST SALE,June-30-2017,Single Family Residential,5917 River Bend Dr,Benbrook,TX,76132,295000,3,3.0,Bellaire Country Place Add,2302,7623,1995,1085,128,117,Sold,,,http://www.redfin.com/TX/Benbrook/5917-River-Bend-Dr-76132/home/32411841,NTREIS,13592029,N,Y,32.6929491,-97.4253551
PAST SALE,October-9-2017,Single Family Residential,4813 South Dr W,Fort Worth,TX,76132,359900,4,3.5,Overton South,3117,22651,1983,984,115,,Sold,,,http://www.redfin.com/TX/Fort-Worth/4813-South-Dr-W-76132/home/31877038,NTREIS,13659094,N,Y,32.6701069,-97.3966601
PAST SALE,March-29-2018,Single Family Residential,4716 Everest Dr,Fort Worth,TX,76132,174900,3,2.0,Westwood Add,1147,9322,1958,813,152,,Sold,,,http://www.redfin.com/TX/Fort-Worth/4716-Everest-Dr-76132/home/32190942,NTREIS,13795068,N,Y,32.6687914,-97.3944974
PAST SALE,February-9-2018,Single Family Residential,4621 Darla Dr,Fort Worth,TX,76132,159000,3,2.0,Westwood Add,1418,9583,1958,861,112,,Sold,,,http://www.redfin.com/TX/Fort-Worth/4621-Darla-Dr-76132/home/32191888,NTREIS,13718761,N,Y,32.6673784,-97.3931718
PAST SALE,September-5-2018,Townhouse,5843 Westhaven Dr #2,Fort Worth,TX,76132,239900,3,2.0,Westhaven Twnhms,2107,5314,2002,653,114,150,Sold,,,http://www.redfin.com/TX/Fort-Worth/5843-Westhaven-Dr-76132/unit-2/home/32394892,NTREIS,13894243,N,Y,32.6639879,-97.3961672
PAST SALE,March-24-2018,Single Family Residential,6816 Vista Ridge Dr E,Fort Worth,TX,76132,530000,5,5.5,Vista Ridge Add,5491,2439,2001,818,97,29,Sold,,,http://www.redfin.com/TX/Fort-Worth/6816-Vista-Ridge-Dr-E-76132/home/32419951,NTREIS,13675648,N,Y,32.6503044,-97.4306571
PAST SALE,May-22-2018,Single Family Residential,7105 White Tail Trl,Fort Worth,TX,76132,285000,3,2.5,Quail Ridge Estates Add,2098,5227,2001,759,136,42,Sold,,,http://www.redfin.com/TX/Fort-Worth/7105-White-Tail-Trl-76132/home/32469219,NTREIS,13814539,N,Y,32.6479075,-97.41961
PAST SALE,May-8-2018,Single Family Residential,7009 Brierhollow Ct,Fort Worth,TX,76132,400000,4,2.5,Briercliff Estates Add,2761,8276,2001,773,145,38,Sold,,,http://www.redfin.com/TX/Fort-Worth/7009-Brierhollow-Ct-76132/home/32465219,NTREIS,13793397,N,Y,32.6472886,-97.430805
PAST SALE,November-17-2017,Single Family Residential,6816 Shadow Creek Ct,Fort Worth,TX,76132,699000,4,4.5,Mira Vista Add,3461,18644,2005,945,202,179,Sold,,,http://www.redfin.com/TX/Fort-Worth/6816-Shadow-Creek-Ct-76132/home/32418395,NTREIS,13625657,N,Y,32.6600029,-97.4391882
PAST SALE,May-23-2018,Single Family Residential,6932 Mccracken Ct,Fort Worth,TX,76132,225000,3,2.0,Oakmont Meadows Add,1810,8712,2001,758,124,,Sold,,,http://www.redfin.com/TX/Fort-Worth/6932-McCracken-Ct-76132/home/32473364,NTREIS,13811455,N,Y,32.6602903,-97.4150903
PAST SALE,October-26-2017,Single Family Residential,6305 Dawn Hills Dr,Fort Worth,TX,76132,440000,5,4.0,Monarch Hills Add,3916,10498,2004,967,112,54,Sold,,,http://www.redfin.com/TX/Fort-Worth/6305-Dawn-Hill-Dr-76132/home/32458142,NTREIS,13705262,N,Y,32.658593,-97.427555
PAST SALE,May-10-2019,Single Family Residential,4812 Harlan Ave,Fort Worth,TX,76132,224900,3,2.0,Westcliff Add,1656,11238,1963,406,136,,Sold,,,http://www.redfin.com/TX/Fort-Worth/4812-Harlan-Ave-76132/home/32176733,NTREIS,14005218,N,Y,32.6774927,-97.3891183
PAST SALE,April-28-2020,Single Family Residential,4720 Everest Dr,Fort Worth,TX,76132,170000,4,2.0,Westwood Add,1684,9409,1958,52,101,,Sold,,,http://www.redfin.com/TX/Fort-Worth/4720-Everest-Dr-76132/home/32190943,NTREIS,14291304,N,Y,32.6687811,-97.3946919
PAST SALE,April-24-2020,Single Family Residential,5829 Westhaven Dr,Fort Worth,TX,76132,150000,3,1.0,Westwood Add,1111,10498,1960,56,135,,Sold,,,http://www.redfin.com/TX/Fort-Worth/5829-Westhaven-Dr-76132/home/32191960,NTREIS,14272020,N,Y,32.6638525,-97.3954626
PAST SALE,April-10-2018,Single Family Residential,6608 Canyon Crest Dr,Fort Worth,TX,76132,290000,4,3.5,Hulen Bend Estates Add,3301,8451,1997,801,88,67,Sold,,,http://www.redfin.com/TX/Fort-Worth/6608-Canyon-Crest-Dr-76132/home/32433856,NTREIS,13768157,N,Y,32.6531435,-97.4090082
PAST SALE,June-7-2019,Single Family Residential,5201 Cordova Ave,Fort Worth,TX,76132,231000,4,3.0,Westcliff Add,2178,11151,1974,378,106,,Sold,,,http://www.redfin.com/TX/Fort-Worth/5201-Cordova-Ave-76132/home/32176326,NTREIS,13982849,N,Y,32.6725897,-97.3866694
PAST SALE,September-13-2019,Single Family Residential,5013 Cordova Ave,Fort Worth,TX,76132,219000,4,2.5,Westcliff Add,2102,10454,1973,280,104,,Sold,,,http://www.redfin.com/TX/Fort-Worth/5013-Cordova-Ave-76132/home/32176319,NTREIS,14023388,N,Y,32.6741672,-97.3867116
PAST SALE,November-12-2019,Single Family Residential,6404 Stockton Dr,Fort Worth,TX,76132,195000,3,2.0,Hulen Bend Add,1789,6011,2002,220,109,,Sold,,,http://www.redfin.com/TX/Fort-Worth/6404-Stockton-Dr-76132/home/32479817,NTREIS,14192261,N,Y,32.6576828,-97.4163275
PAST SALE,December-23-2019,Single Family Residential,6704 Briarwood Dr,Fort Worth,TX,76132,298000,3,2.0,Hulen Bend Estates,2479,7144,2002,179,120,45,Sold,,,http://www.redfin.com/TX/Fort-Worth/6704-Briarwood-Dr-76132/home/32445420,NTREIS,14219013,N,Y,32.6554997,-97.4096206
PAST SALE,December-20-2019,Single Family Residential,6929 Andress Dr,Fort Worth,TX,76132,224900,3,2.0,Oakmont Meadows Add,1801,5663,2001,182,125,,Sold,,,http://www.redfin.com/TX/Fort-Worth/6929-Andress-Dr-76132/home/32473594,NTREIS,14219915,N,Y,32.6591181,-97.4140297
PAST SALE,November-27-2019,Multi-Family (2-4 Unit),5604 Ridgerock Rd,Fort Worth,TX,76132,469000,7,5.0,Overton South Add,5059,21039,1993,205,93,,Sold,,,http://www.redfin.com/TX/Fort-Worth/5604-Ridgerock-Ct-76132/home/31876992,NTREIS,13904354,N,Y,32.6677362,-97.3986402
PAST SALE,November-25-2019,Single Family Residential,6921 Coldwater Canyon Rd,Fort Worth,TX,76132,235000,3,2.0,Park Palisades Add,1974,8930,1999,207,119,37,Sold,,,http://www.redfin.com/TX/Fort-Worth/6921-Cold-Water-Canyon-Rd-76132/home/32457436,NTREIS,14154995,N,Y,32.6477616,-97.4131426
PAST SALE,November-26-2019,Single Family Residential,6914 Briarwood Dr,Fort Worth,TX,76132,279000,4,2.0,Hulen Bend Estates Add,2419,7536,1996,206,115,43,Sold,,,http://www.redfin.com/TX/Fort-Worth/6914-Briarwood-Dr-76132/home/32433889,NTREIS,14208229,N,Y,32.6555288,-97.4124715
PAST SALE,December-31-2019,Single Family Residential,17 Mont Del Dr,Benbrook,TX,76132,459000,5,3.0,Mont Del Estates Add,3443,16161,2006,171,133,3,Sold,,,http://www.redfin.com/TX/Benbrook/17-Mont-Del-Dr-76132/home/31795452,NTREIS,14181014,N,Y,32.6876245,-97.4174557
PAST SALE,January-24-2020,Single Family Residential,6316 Stockton Dr,Fort Worth,TX,76132,215000,3,2.0,Hulen Bend Add,1862,6011,2000,147,115,,Sold,,,http://www.redfin.com/TX/Fort-Worth/6316-Stockton-Dr-76132/home/32479841,NTREIS,14225210,N,Y,32.6589345,-97.4163047
PAST SALE,February-4-2020,Single Family Residential,5117 South Dr,Fort Worth,TX,76132,250000,3,2.0,Westcliff Add,2131,11413,1965,136,117,,Sold,,,http://www.redfin.com/TX/Fort-Worth/5117-South-Dr-76132/home/32176380,NTREIS,14241701,N,Y,32.6738259,-97.3887805
PAST SALE,February-26-2020,Single Family Residential,5710 Ridgerock Rd,Fort Worth,TX,76132,315000,3,2.0,Overton South Add,2220,6665,2010,114,142,,Sold,,,http://www.redfin.com/TX/Fort-Worth/5710-Ridgerock-Ct-76132/home/35561022,NTREIS,14246429,N,Y,32.6659311,-97.3995803
PAST SALE,November-6-2018,Single Family Residential,6900 Coldwater Canyon Rd,Fort Worth,TX,76132,239500,4,3.0,Park Palisades Add,2365,7275,1999,591,101,37,Sold,,,http://www.redfin.com/TX/Fort-Worth/6900-Cold-Water-Canyon-Rd-76132/home/32457492,NTREIS,13945855,N,Y,32.6485819,-97.4134008
PAST SALE,March-3-2020,Multi-Family (2-4 Unit),4901 Ledgestone Dr,Fort Worth,TX,76132,411000,3,4.0,Overton South Add,3636,19166,1976,108,113,,Sold,,,http://www.redfin.com/TX/Fort-Worth/4901-Ledgestone-Dr-76132/home/31876881,NTREIS,14271420,N,Y,32.676106,-97.393735
PAST SALE,March-19-2020,Multi-Family (2-4 Unit),5708 Ridgerock Rd,Fort Worth,TX,76132,279000,3,2.0,Overton South Add,1936,6665,2010,92,144,,Sold,,,http://www.redfin.com/TX/Fort-Worth/5708-Ridgerock-Ct-76132/home/31876999,NTREIS,14273115,N,Y,32.6659249,-97.3996173
PAST SALE,April-22-2020,Single Family Residential,6240 Stockton Dr,Fort Worth,TX,76132,175000,3,2.0,Hulen Bend Add,1445,6011,2001,58,121,,Sold,,,http://www.redfin.com/TX/Fort-Worth/6240-Stockton-Dr-76132/home/32479847,NTREIS,14308191,N,Y,32.659745,-97.4161463
PAST SALE,May-9-2019,Single Family Residential,4704 Albermarle Dr,Fort Worth,TX,76132,164900,3,2.0,Westwood Add,1164,12763,1959,407,142,,Sold,,,http://www.redfin.com/TX/Fort-Worth/4704-Albermarle-Dr-76132/home/31045046,NTREIS,14060183,N,Y,32.6653995,-97.394707
PAST SALE,June-12-2020,Single Family Residential,6941 Spring Valley Way,Fort Worth,TX,76132,380000,5,3.5,Hulen Bend Estates Add,3788,9801,1998,7,100,45,Sold,,,http://www.redfin.com/TX/Fort-Worth/6941-Spring-Valley-Way-76132/home/32445376,NTREIS,14329110,N,Y,32.6577173,-97.4149662
PAST SALE,February-21-2020,Single Family Residential,5209 South Dr,Fort Worth,TX,76132,205000,3,2.0,Westcliff Add,1959,11238,1965,119,105,,Sold,,,http://www.redfin.com/TX/Fort-Worth/5209-South-Dr-76132/home/32176377,NTREIS,14098614,N,Y,32.6731096,-97.3888333
PAST SALE,July-24-2018,Single Family Residential,7309 Valencia Grove Ct,Fort Worth,TX,76132,380000,4,3.0,River Hills II Add,2020,6098,2010,696,188,42,Sold,,,http://www.redfin.com/TX/Fort-Worth/7309-Valencia-Grove-Ct-76132/home/31306029,NTREIS,13763041,N,Y,32.6673469,-97.4286081
PAST SALE,April-30-2018,Single Family Residential,6941 Ridgewood Dr,Fort Worth,TX,76132,1068000,4,5.0,Mira Vista Add,6035,19166,1997,781,177,179,Sold,,,http://www.redfin.com/TX/Fort-Worth/6941-Ridgewood-Dr-76132/home/32428219,NTREIS,13772389,N,Y,32.6513642,-97.4368468
PAST SALE,March-30-2018,Townhouse,6733 Lost Star Ln,Fort Worth,TX,76132,365900,3,3.5,Bellaire Village,2427,2439,2015,812,151,83,Sold,,,http://www.redfin.com/TX/Fort-Worth/6733-Lost-Star-Ln-76132/home/31226486,NTREIS,13729677,N,Y,32.6683626,-97.4277631
PAST SALE,April-27-2018,Single Family Residential,4837 River View Dr,Fort Worth,TX,76132,489900,4,3.5,Meadows West Add,3289,16422,1985,784,149,3,Sold,,,http://www.redfin.com/TX/Fort-Worth/4837-Riverview-Dr-76132/home/32337026,NTREIS,13801831,N,Y,32.678414,-97.4270027
PAST SALE,May-1-2018,Single Family Residential,6712 Blue Meadow Dr,Fort Worth,TX,76132,469000,4,3.5,Meadows West Add,3108,10890,1985,780,151,5,Sold,,,http://www.redfin.com/TX/Fort-Worth/6712-Blue-Meadow-Dr-76132/home/32336924,NTREIS,13796100,N,Y,32.6800466,-97.4275941
PAST SALE,March-29-2018,Single Family Residential,6605 Hillside Dr,Benbrook,TX,76132,339900,3,2.5,Country Day Estates,2727,12981,1980,813,125,,Sold,,,http://www.redfin.com/TX/Benbrook/6605-Hillside-Dr-76132/home/31501776,NTREIS,13646935,N,Y,32.6897042,-97.4238343
PAST SALE,June-11-2019,Single Family Residential,6654 Gascony Pl,Fort Worth,TX,76132,750000,3,3.0,Trinity Heights Crowley ISD,3586,7231,2000,374,209,88,Sold,,,http://www.redfin.com/TX/Fort-Worth/6654-Gascony-Pl-76132/home/32457282,NTREIS,14090035,N,Y,32.6544157,-97.4309106
PAST SALE,June-14-2019,Single Family Residential,6609 Sahalee Dr,Fort Worth,TX,76132,975000,5,4.0,Mira Vista Add,6428,19689,1998,371,152,660,Sold,,,http://www.redfin.com/TX/Fort-Worth/6609-Sahalee-Dr-76132/home/32413985,NTREIS,13944734,N,Y,32.6563827,-97.4362341
PAST SALE,October-10-2018,Single Family Residential,6429 Greenbriar Ln,Fort Worth,TX,76132,249900,4,2.5,Hulen Bend Estates Add,2496,9148,1998,618,100,45,Sold,,,http://www.redfin.com/TX/Fort-Worth/6429-Greenbriar-Ln-76132/home/32445404,NTREIS,13894932,N,Y,32.6561663,-97.4096155
PAST SALE,September-28-2018,Single Family Residential,6400 Windwood Ct,Fort Worth,TX,76132,250000,4,4.0,Hulen Bend Estates Add,3234,11892,1998,630,77,45,Sold,,,http://www.redfin.com/TX/Fort-Worth/6400-Windwood-Ct-76132/home/32445339,NTREIS,13870315,N,Y,32.6570697,-97.4109088
PAST SALE,March-8-2019,Townhouse,6724 Lost Star Ln,Fort Worth,TX,76132,349900,3,2.5,Bellaire Village,2469,3572,2016,469,142,83,Sold,,,http://www.redfin.com/TX/Fort-Worth/6724-Lost-Star-Ln-76132/home/31226442,NTREIS,13956793,N,Y,32.6686069,-97.4275466
PAST SALE,December-10-2018,Townhouse,5239 Welden Ct,Fort Worth,TX,76132,198000,2,2.0,Villas On The Bluff Condo,1166,6186,1997,557,170,325,Sold,,,http://www.redfin.com/TX/Fort-Worth/5239-Welden-Ct-76132/home/32444903,NTREIS,13902928,N,Y,32.6717889,-97.419726
PAST SALE,December-14-2017,Single Family Residential,6324 ARROWHEAD Rd,Fort Worth,TX,76132,684800,4,3.5,Mira Vista Add,4393,24655,1994,918,156,167,Sold,,,http://www.redfin.com/TX/Fort-Worth/6324-Arrowhead-Rd-76132/home/32394818,NTREIS,13598229,N,Y,32.6592868,-97.4316711
PAST SALE,September-10-2018,Single Family Residential,6600 Foxpointe Rd,Fort Worth,TX,76132,1485000,5,4.5,Mira Vista Add,5623,21911,1992,648,264,183,Sold,,,http://www.redfin.com/TX/Fort-Worth/6600-Foxpointe-Rd-76132/home/32395402,NTREIS,13899501,N,Y,32.6598483,-97.4351567
PAST SALE,April-16-2018,Single Family Residential,6425 Elm Crest Ct,Fort Worth,TX,76132,735000,4,3.5,Hawthorne Park Estates,4703,17598,1999,795,156,63,Sold,,,http://www.redfin.com/TX/Fort-Worth/6425-Elm-Crest-Ct-76132/home/32423159,NTREIS,13794759,N,Y,32.6598139,-97.4290728
PAST SALE,July-7-2017,Single Family Residential,6720 Foxpointe Rd,Fort Worth,TX,76132,1900000,3,5.0,Mira Vista Add,8121,92391,1995,1078,234,44,Sold,,,http://www.redfin.com/TX/Fort-Worth/6720-Foxpointe-Rd-76132/home/32395454,NTREIS,13586831,N,Y,32.6603507,-97.4374172
PAST SALE,August-23-2018,Single Family Residential,6700 W Dover Ter,Fort Worth,TX,76132,659000,4,3.5,Trinity Heights Crowley ISD,3248,12720,1999,666,203,77,Sold,,,http://www.redfin.com/TX/Fort-Worth/6700-Dover-Ter-W-76132/home/32457305,NTREIS,13875233,N,Y,32.6533448,-97.432685
PAST SALE,February-27-2018,Single Family Residential,6932 Spring Valley Way,Fort Worth,TX,76132,215000,3,2.0,Hulen Bend Estates Add,2092,7405,1998,843,103,45,Sold,,,http://www.redfin.com/TX/Fort-Worth/6932-Spring-Valley-Way-76132/home/32445341,NTREIS,13767732,N,Y,32.6581022,-97.4146422
PAST SALE,November-8-2017,Single Family Residential,6140 Forest Highlands Dr,Fort Worth,TX,76132,1125000,4,4.0,Mira Vista Add,5996,22172,1988,954,188,175,Sold,,,http://www.redfin.com/TX/Fort-Worth/6140-Forest-Highlands-Dr-76132/home/32395460,NTREIS,13615358,N,Y,32.6609959,-97.4357905
PAST SALE,September-25-2018,Single Family Residential,7604 Ramble Wood Trl,Fort Worth,TX,76132,355000,4,3.0,Quail Ridge Estates Add,2543,9017,1987,633,140,,Sold,,,http://www.redfin.com/TX/Fort-Worth/7604-Ramble-Wood-Trl-76132/home/32384328,NTREIS,13903450,N,Y,32.6489195,-97.4247637
PAST SALE,May-30-2018,Single Family Residential,7005 Brookvale Rd,Fort Worth,TX,76132,299900,3,2.5,Quail Ridge Estates Add,2011,9017,1987,751,149,,Sold,,,http://www.redfin.com/TX/Fort-Worth/7005-Brookvale-Rd-76132/home/32384176,NTREIS,13839946,N,Y,32.6501661,-97.424468
PAST SALE,October-19-2018,Single Family Residential,6213 Gillispie Dr,Fort Worth,TX,76132,175000,3,2.0,Oakmont Meadows Add,1461,6098,2000,609,120,,Sold,,,http://www.redfin.com/TX/Fort-Worth/6213-Gillispie-Dr-76132/home/32473393,NTREIS,13935147,N,Y,32.6596903,-97.4133585
PAST SALE,October-24-2018,Single Family Residential,6725 Day Dr,Fort Worth,TX,76132,198500,3,2.0,Oakmont Meadows Add,1813,5489,1999,604,109,,Sold,,,http://www.redfin.com/TX/Fort-Worth/6725-Day-Dr-76132/home/32446092,NTREIS,13928295,N,Y,32.658254,-97.4113319
PAST SALE,November-20-2018,Single Family Residential,6100 Troon Rd,Fort Worth,TX,76132,699400,4,3.5,Mira Vista Add,4142,12502,1992,577,169,183,Sold,,,http://www.redfin.com/TX/Fort-Worth/6100-Troon-Rd-76132/home/32395028,NTREIS,13917295,N,Y,32.6617825,-97.432516
PAST SALE,August-9-2018,Single Family Residential,6728 Crooked Stick Dr,Fort Worth,TX,76132,669000,4,3.0,Mira Vista Add,3273,12850,1999,680,204,175,Sold,,,http://www.redfin.com/TX/Fort-Worth/6728-Crooked-Stick-Dr-76132/home/32441218,NTREIS,13858174,N,Y,32.6536608,-97.4432694
PAST SALE,May-29-2018,Single Family Residential,6617 Stockton Dr,Fort Worth,TX,76132,204000,3,2.0,Hulen Bend Add,1946,14375,2001,752,105,,Sold,,,http://www.redfin.com/TX/Fort-Worth/6617-Stockton-Dr-76132/home/32480246,NTREIS,13812971,N,Y,32.6552223,-97.4154282
PAST SALE,April-19-2018,Single Family Residential,7016 Saucon Valley Dr,Fort Worth,TX,76132,750000,4,3.5,Mira Vista Add,3259,13721,1995,792,230,175,Sold,,,http://www.redfin.com/TX/Fort-Worth/7016-Saucon-Valley-Dr-76132/home/32421454,NTREIS,13798704,N,Y,32.6545161,-97.4406918
PAST SALE,November-27-2017,Single Family Residential,7141 Aspen Wood Trl,Fort Worth,TX,76132,299000,4,2.5,Quail Ridge Estates Add,2406,8930,1993,935,124,,Sold,,,http://www.redfin.com/TX/Fort-Worth/7141-Aspen-Wood-Trl-76132/home/32384164,NTREIS,13683944,N,Y,32.6461201,-97.4238321
PAST SALE,November-17-2017,Single Family Residential,7504 Amhurst Cir,Fort Worth,TX,76132,319999,3,2.0,Quail Ridge Estates Add,2282,9322,1987,945,140,,Sold,,,http://www.redfin.com/TX/Fort-Worth/7504-Amhurst-Cir-76132/home/32384345,NTREIS,13644287,N,Y,32.6509249,-97.4242567
PAST SALE,April-16-2018,Single Family Residential,6321 Stockton Dr,Fort Worth,TX,76132,169900,3,2.0,Hulen Bend Add,1411,6011,2000,795,120,,Sold,,,http://www.redfin.com/TX/Fort-Worth/6321-Stockton-Dr-76132/home/32479770,NTREIS,13795186,N,Y,32.6586212,-97.4158506
PAST SALE,August-29-2018,Single Family Residential,6244 Stockton Dr,Fort Worth,TX,76132,195000,3,2.0,Hulen Bend Add,1595,6011,2001,660,122,,Sold,,,http://www.redfin.com/TX/Fort-Worth/6244-Stockton-Dr-76132/home/32479838,NTREIS,13900675,N,Y,32.6596133,-97.4161463
PAST SALE,May-30-2018,Single Family Residential,6837 Beverly Glen Dr,Fort Worth,TX,76132,200000,3,2.0,Park Palisades Add,1812,6316,1999,751,110,38,Sold,,,http://www.redfin.com/TX/Fort-Worth/6837-Beverly-Glen-Dr-76132/home/32457520,NTREIS,13820579,N,Y,32.6510985,-97.4138115
PAST SALE,October-10-2018,Single Family Residential,7117 Deer Hollow Dr,Fort Worth,TX,76132,277000,3,2.0,Quail Ridge Estates Add,1699,5489,1998,618,163,42,Sold,,,http://www.redfin.com/TX/Fort-Worth/7117-Deer-Hollow-Dr-76132/home/32442905,NTREIS,13916887,N,Y,32.6473928,-97.4205182
PAST SALE,November-9-2018,Single Family Residential,6728 Day Dr,Fort Worth,TX,76132,215000,3,2.0,Oakmont Meadows Add,1813,5489,1999,588,119,,Sold,,,http://www.redfin.com/TX/Fort-Worth/6728-Day-Dr-76132/home/32445898,NTREIS,13923374,N,Y,32.6586921,-97.4116087
PAST SALE,February-20-2018,Single Family Residential,6924 Laurel Canyon Ter,Fort Worth,TX,76132,239000,4,2.0,Park Palisades Add,2365,9583,2000,850,101,36,Sold,,,http://www.redfin.com/TX/Fort-Worth/6924-Laurel-Canyon-Ter-76132/home/32457460,NTREIS,13752340,N,Y,32.6497636,-97.4142033
PAST SALE,November-6-2019,Townhouse,5863 Pecan Chase,Benbrook,TX,76132,210000,2,2.0,Waterwood Place,1378,2962,1999,226,152,154,Sold,,,http://www.redfin.com/TX/Benbrook/5863-Pecan-Chase-76132/home/32372807,NTREIS,14205380,N,Y,32.69411,-97.424212
PAST SALE,July-17-2017,Single Family Residential,6716 Clear Spring Dr,Fort Worth,TX,76132,479900,4,3.0,Bellaire Park North,3473,11369,1995,1068,138,3,Sold,,,http://www.redfin.com/TX/Fort-Worth/6716-Clear-Spring-Dr-76132/home/32415643,NTREIS,13621855,N,Y,32.6725816,-97.4280377
PAST SALE,December-19-2018,Single Family Residential,6728 Medinah Dr,Fort Worth,TX,76132,620000,3,2.5,Mira Vista Add,2783,6273,2000,548,223,259,Sold,,,http://www.redfin.com/TX/Fort-Worth/6728-Medinah-Dr-76132/home/32434673,NTREIS,13936245,N,Y,32.6529235,-97.433868
PAST SALE,December-20-2018,Single Family Residential,6701 Meadows West Dr S,Fort Worth,TX,76132,399950,4,3.0,Meadows West Add,2704,11195,1984,547,148,3,Sold,,,http://www.redfin.com/TX/Fort-Worth/6701-W-Meadows-Dr-S-76132/home/31781948,NTREIS,13944137,N,Y,32.6759891,-97.4279321
PAST SALE,May-6-2018,Single Family Residential,7005 Aspen Wood Trl,Fort Worth,TX,76132,319900,3,2.5,Quail Ridge Estates Add,2271,16117,1987,775,141,,Sold,,,http://www.redfin.com/TX/Fort-Worth/7005-Aspen-Wood-Trl-76132/home/32384245,NTREIS,13575175,N,Y,32.6505045,-97.4232006
PAST SALE,September-28-2018,Single Family Residential,5017 Highland Meadow Dr,Fort Worth,TX,76132,569000,4,3.5,Meadows West Add,3886,12240,1991,630,146,,Sold,,,http://www.redfin.com/TX/Fort-Worth/5017-Highland-Meadow-Dr-76132/home/32401218,NTREIS,13898929,N,Y,32.6749311,-97.4254185
PAST SALE,January-11-2019,Single Family Residential,7109 Meadowside Rd S,Fort Worth,TX,76132,248000,3,2.5,Quail Ridge Estates Add,1560,9322,1994,525,159,,Sold,,,http://www.redfin.com/TX/Fort-Worth/7109-Meadowside-Rd-S-76132/home/32384458,NTREIS,13907223,N,Y,32.6477124,-97.425503
PAST SALE,January-18-2019,Single Family Residential,6717 Oak Hill Dr,Fort Worth,TX,76132,1199000,5,5.5,Mira Vista Add,6700,20125,2005,518,179,183,Sold,,,http://www.redfin.com/TX/Fort-Worth/6717-Oak-Hill-Dr-76132/home/32428200,NTREIS,13777610,N,Y,32.6504856,-97.4364876
PAST SALE,February-25-2019,Single Family Residential,6316 Elm Crest Ct,Fort Worth,TX,76132,629000,4,3.5,Hawthorne Park Estates,4112,16161,1998,480,153,63,Sold,,,http://www.redfin.com/TX/Fort-Worth/6316-Elm-Crest-Ct-76132/home/32423165,NTREIS,13848381,N,Y,32.6616708,-97.4286609
PAST SALE,February-25-2019,Single Family Residential,6920 Vista Ridge Dr E,Fort Worth,TX,76132,469000,5,4.0,Vista Ridge Add,4014,11369,1995,480,117,38,Sold,,,http://www.redfin.com/TX/Fort-Worth/6920-Vista-Ridge-Dr-E-76132/home/32419975,NTREIS,13945059,N,Y,32.6489454,-97.4302557
PAST SALE,February-28-2019,Single Family Residential,6512 Havenview Ct,Fort Worth,TX,76132,550000,4,4.5,Meadows West Add,4310,14985,1989,477,128,,Sold,,,http://www.redfin.com/TX/Fort-Worth/6512-Havenview-Ct-76132/home/32401151,NTREIS,14015332,N,Y,32.675363,-97.4244257
PAST SALE,March-4-2019,Single Family Residential,6440 Fianna Hills Dr,Fort Worth,TX,76132,389900,4,3.0,Monarch Hills Add,3091,7797,2000,473,126,54,Sold,,,http://www.redfin.com/TX/Fort-Worth/6440-Fianna-Hills-Dr-76132/home/32473800,NTREIS,13975937,N,Y,32.6593963,-97.429453
PAST SALE,March-13-2019,Single Family Residential,6532 Valencia Grove Pass,Fort Worth,TX,76132,474900,4,3.5,River Hills II Add,3651,5663,2007,464,130,42,Sold,,,http://www.redfin.com/TX/Fort-Worth/6532-Valencia-Grove-Pass-76132/home/40197318,NTREIS,13981553,N,Y,32.6665005,-97.4288193
PAST SALE,July-19-2019,Single Family Residential,6921 Meadowside Rd S,Fort Worth,TX,76132,315000,4,2.5,Quail Ridge Estates Add,2420,9365,1996,336,130,,Sold,,,http://www.redfin.com/TX/Fort-Worth/6921-Meadowside-Rd-S-76132/home/32423181,NTREIS,14093036,N,Y,32.6504568,-97.4266014
PAST SALE,July-19-2019,Townhouse,7113 Rose Quartz Ct,Fort Worth,TX,76132,360000,3,3.0,Bellaire Village,2565,3572,2016,336,140,83,Sold,,,http://www.redfin.com/TX/Fort-Worth/7113-Rose-Quartz-Ct-76132/home/31226447,NTREIS,14116879,N,Y,32.6687491,-97.4277824
PAST SALE,February-15-2019,Single Family Residential,6920 Vista Ridge Ct,Fort Worth,TX,76132,525000,4,3.5,Vista Ridge Add,3750,9975,2001,490,140,29,Sold,,,http://www.redfin.com/TX/Fort-Worth/6920-Vista-Ridge-Ct-76132/home/32444436,NTREIS,13990744,N,Y,32.6497094,-97.4314387
PAST SALE,June-13-2019,Single Family Residential,7028 Golden Gate Dr,Fort Worth,TX,76132,320000,4,3.0,Bellaire Park North,2614,9583,1988,372,122,,Sold,,,http://www.redfin.com/TX/Fort-Worth/7028-Golden-Gate-Dr-76132/home/32384553,NTREIS,14044854,N,Y,32.6697986,-97.429453
PAST SALE,May-28-2019,Single Family Residential,5209 Partridge Rd,Fort Worth,TX,76132,249900,3,2.0,Overton South,2186,11064,1977,388,114,2,Sold,,,http://www.redfin.com/TX/Fort-Worth/5209-Partridge-Rd-76132/home/31875181,NTREIS,14006920,N,Y,32.6725275,-97.3940749
PAST SALE,April-1-2019,Single Family Residential,6152 Strada Cv,Fort Worth,TX,76123,404000,3,2.0,Tavolo Park,2321,6534,2019,445,174,54,Sold,,,http://www.redfin.com/TX/Fort-Worth/6152-Strada-Cv-76123/home/169105843,NTREIS,14055867,N,Y,32.641066,-97.424744
PAST SALE,January-30-2019,Single Family Residential,7436 Plumgrove Rd,Fort Worth,TX,76123,369183,3,2.5,Tavolo Park,2224,6098,2018,506,166,54,Sold,,,http://www.redfin.com/TX/FORT-WORTH/7436-PLUMGROVE-RD-76123/home/146775626,NTREIS,14013650,N,Y,32.644626,-97.428049
PAST SALE,May-29-2019,Single Family Residential,6809 Windwood Trl,Fort Worth,TX,76132,325000,4,2.5,Hulen Bend Estates Add,3015,7100,1999,387,108,48,Sold,,,http://www.redfin.com/TX/Fort-Worth/6809-Windwood-Trl-76132/home/32445437,NTREIS,14005846,N,Y,32.6558488,-97.4111411
PAST SALE,May-29-2019,Single Family Residential,6113 Bowin Dr,Fort Worth,TX,76132,215000,3,2.0,Oakmont Meadows Add,2148,5489,1998,387,100,,Sold,,,http://www.redfin.com/TX/Fort-Worth/6113-Bowin-Dr-76132/home/32445918,NTREIS,14028259,N,Y,32.6605853,-97.4115845
PAST SALE,May-30-2019,Single Family Residential,7001 Meadowside Rd S,Fort Worth,TX,76132,249000,3,2.0,Quail Ridge Estates Add,1992,9365,1995,386,125,,Sold,,,http://www.redfin.com/TX/Fort-Worth/7001-Meadowside-Rd-S-76132/home/32423200,NTREIS,14088181,N,Y,32.6497927,-97.4263268
PAST SALE,November-14-2017,Townhouse,6664 Shady Glen Cir,Benbrook,TX,76132,320000,3,2.0,Waterwood Place,2276,7536,2005,948,141,154,Sold,,,http://www.redfin.com/TX/Benbrook/6664-Shady-Glen-Cir-76132/home/31061483,NTREIS,13615704,N,Y,32.694675,-97.4241828
PAST SALE,August-11-2017,Single Family Residential,10 Lombardy Ter,Benbrook,TX,76132,485000,4,3.0,Mont Del Estates Add,3612,18992,1975,1043,134,3,Sold,,,http://www.redfin.com/TX/Benbrook/10-Lombardy-Ter-76132/home/31795342,NTREIS,13583570,N,Y,32.6873923,-97.4222548
PAST SALE,October-31-2018,Single Family Residential,24 Legend Rd,Benbrook,TX,76132,309900,3,2.0,Meadows West Add,2342,8276,1978,597,132,,Sold,,,http://www.redfin.com/TX/Benbrook/24-Legend-Rd-76132/home/31781971,NTREIS,13924085,N,Y,32.6900846,-97.4198293
PAST SALE,January-25-2019,Single Family Residential,6612 Hillside Dr,Benbrook,TX,76132,404900,4,2.5,Country Day Estates,2543,9583,1981,511,159,,Sold,,,http://www.redfin.com/TX/Benbrook/6612-Hillside-Dr-76132/home/31501818,NTREIS,13963405,N,Y,32.6896717,-97.4243835
PAST SALE,February-1-2019,Single Family Residential,6628 Country Day Trl,Benbrook,TX,76132,419000,4,2.5,Country Day Estates,2677,11326,1991,504,157,,Sold,,,http://www.redfin.com/TX/Benbrook/6628-Country-Day-Trl-76132/home/32333661,NTREIS,13964736,N,Y,32.6905971,-97.4250594
PAST SALE,February-4-2019,Single Family Residential,36 Legend Rd,Benbrook,TX,76132,279000,3,2.5,Meadows West Add,2218,5793,1978,501,126,,Sold,,,http://www.redfin.com/TX/Benbrook/36-Legend-Rd-76132/home/31781965,NTREIS,13991018,N,Y,32.6900699,-97.4210202
PAST SALE,March-6-2019,Single Family Residential,5969 River Bend Dr,Benbrook,TX,76132,289900,3,2.0,Bellaire Country Place Add,2054,7013,1999,471,141,117,Sold,,,http://www.redfin.com/TX/Benbrook/5969-River-Bend-Dr-76132/home/32411825,NTREIS,14011306,N,Y,32.6908999,-97.425503
PAST SALE,November-29-2019,Single Family Residential,20 Legend Rd,Benbrook,TX,76132,299000,3,2.0,Mont Del Estates Add,2245,12589,1974,203,133,3,Sold,,,http://www.redfin.com/TX/Benbrook/20-Legend-Rd-76132/home/31795489,NTREIS,14090332,N,Y,32.6900673,-97.4188155
PAST SALE,December-9-2019,Single Family Residential,21 Windward Rd,Benbrook,TX,76132,389000,4,3.5,Mont Del Estates Add,3225,25265,1975,193,121,,Sold,,,http://www.redfin.com/TX/Fort-Worth/21-Windward-Rd-76132/home/31795373,NTREIS,14211962,N,Y,32.686006,-97.423366
PAST SALE,May-31-2019,Single Family Residential,100 Legend Rd,Benbrook,TX,76132,359000,3,2.5,Meadows West Add,2412,18949,2002,385,149,,Sold,,,http://www.redfin.com/TX/Benbrook/100-Legend-Rd-76132/home/32418454,NTREIS,14067694,N,Y,32.6879886,-97.4254708
PAST SALE,August-10-2018,Single Family Residential,68 Legend Rd,Benbrook,TX,76132,317500,3,2.5,Meadows West Add,2693,8930,1985,679,118,3,Sold,,,http://www.redfin.com/TX/Benbrook/68-Legend-Rd-76132/home/31781952,NTREIS,13813912,N,Y,32.6889224,-97.4237921
PAST SALE,July-9-2018,Multi-Family (2-4 Unit),6631 Waterwood Trl,Benbrook,TX,76132,250000,2,2.0,Country Day Estates,1646,6273,1996,711,152,,Sold,,,http://www.redfin.com/TX/Benbrook/6631-Waterwood-Trl-76132/home/32435385,NTREIS,13835827,N,Y,32.693078,-97.424189
PAST SALE,October-3-2018,Single Family Residential,5927 Bellaire Dr,Benbrook,TX,76132,479900,3,3.5,Country Day Estates,3336,13721,1998,625,144,,Sold,,,http://www.redfin.com/TX/Benbrook/5927-Bellaire-Dr-S-76132/home/32418528,NTREIS,13927796,N,Y,32.6926381,-97.4246792
PAST SALE,July-26-2019,Single Family Residential,6513 Valencia Grove Pass,Fort Worth,TX,76132,349500,3,2.0,River Hills II Add,2160,6098,2010,329,162,42,Sold,,,http://www.redfin.com/TX/Fort-Worth/6513-Valencia-Grove-Pass-76132/home/31306067,NTREIS,14114087,N,Y,32.6662508,-97.4278476
PAST SALE,July-29-2019,Single Family Residential,6900 Topanga Ter,Fort Worth,TX,76132,255000,4,3.0,Park Palisades Add,2365,13199,1999,326,108,38,Sold,,,http://www.redfin.com/TX/Fort-Worth/6900-Topanga-Ter-76132/home/32457476,NTREIS,14119619,N,Y,32.6489678,-97.4136006
PAST SALE,July-30-2019,Single Family Residential,6221 Gillispie Dr,Fort Worth,TX,76132,210000,3,2.0,Oakmont Meadows,1862,6534,2002,325,113,,Sold,,,http://www.redfin.com/TX/Fort-Worth/6221-Gillispie-Dr-76132/home/32473391,NTREIS,14123053,N,Y,32.6593831,-97.4133585
PAST SALE,July-29-2019,Single Family Residential,16 Bounty Rd W,Benbrook,TX,76132,439000,4,3.5,Mont Del Estates Add,2835,16161,1974,326,155,,Sold,,,http://www.redfin.com/TX/Benbrook/16-Bounty-Rd-W-76132/home/31795441,NTREIS,14108494,N,Y,32.687342,-97.4170721
PAST SALE,July-26-2019,Single Family Residential,6732 Audubon Trl,Fort Worth,TX,76132,349900,4,4.0,Hulen Bend Estates Add,3418,9191,2000,329,102,45,Sold,,,http://www.redfin.com/TX/Fort-Worth/6732-Audubon-Trl-76132/home/32457817,NTREIS,14082617,N,Y,32.6529771,-97.4147946
PAST SALE,July-30-2019,Single Family Residential,7501 Caddo Ct,Fort Worth,TX,76132,309000,3,2.0,Quail Ridge Estates Add,2207,10149,1989,325,140,,Sold,,,http://www.redfin.com/TX/Fort-Worth/7501-Caddo-Ct-76132/home/32384318,NTREIS,14086751,N,Y,32.6512422,-97.4240878
PAST SALE,August-6-2019,Single Family Residential,6946 Mesa Dr,Fort Worth,TX,76132,311000,4,2.5,Hulen Bend Estates,3047,7405,1996,318,102,38,Sold,,,http://www.redfin.com/TX/Fort-Worth/6946-Mesa-Dr-76132/home/32433820,NTREIS,14100192,N,Y,32.6571501,-97.4140575
PAST SALE,August-13-2019,Single Family Residential,6924 Coldwater Canyon Rd,Fort Worth,TX,76132,210000,3,2.0,Park Paiisades,1821,13068,1999,311,115,13,Sold,,,http://www.redfin.com/TX/Fort-Worth/6924-Cold-Water-Canyon-Rd-76132/home/32457485,NTREIS,14095049,N,Y,32.6477277,-97.4136887
PAST SALE,August-20-2019,Single Family Residential,6804 Clear Spring Dr,Fort Worth,TX,76132,499000,4,3.0,Bellaire Park North,3591,13678,1993,304,139,,Sold,,,http://www.redfin.com/TX/Fort-Worth/6804-Clear-Spring-Dr-76132/home/32415685,NTREIS,14122018,N,Y,32.6731186,-97.4308261
PAST SALE,August-20-2019,Single Family Residential,6432 Elm Crest Ct,Fort Worth,TX,76132,854900,5,4.5,Hawthorne Park Estates,4495,15594,1995,304,190,63,Sold,,,http://www.redfin.com/TX/Fort-Worth/6432-Elm-Crest-Ct-76132/home/32423153,NTREIS,14143591,N,Y,32.6603594,-97.4294953
PAST SALE,August-21-2019,Single Family Residential,6717 Deep Valley Ln,Fort Worth,TX,76132,399000,4,3.0,Meadows West Add,3061,13504,1984,303,130,,Sold,,,http://www.redfin.com/TX/Fort-Worth/6717-Deep-Valley-Ln-76132/home/31781885,NTREIS,14074482,N,Y,32.6767247,-97.4292207
PAST SALE,August-23-2019,Single Family Residential,5 Bounty Rd W,Benbrook,TX,76132,415000,3,3.0,Mont Del Estates Add,3433,16117,1978,301,121,,Sold,,,http://www.redfin.com/TX/Benbrook/5-Bounty-Rd-W-76132/home/31795436,NTREIS,14149159,N,Y,32.6878418,-97.4163786
PAST SALE,September-6-2019,Single Family Residential,7016 Castle Creek Dr E,Fort Worth,TX,76132,355000,4,2.5,Bellaire Park North,2670,9322,1991,287,133,,Sold,,,http://www.redfin.com/TX/Fort-Worth/7016-Castle-Creek-Dr-E-76132/home/32384580,NTREIS,14102394,N,Y,32.6696854,-97.4269182
PAST SALE,September-18-2019,Townhouse,6708 Lost Star Ln,Fort Worth,TX,76132,343000,3,2.5,Bellaire Village,2555,3006,2016,275,134,83,Sold,,,http://www.redfin.com/TX/Fort-Worth/6708-Lost-Star-Ln-76132/home/31226440,NTREIS,14158038,N,Y,32.6689546,-97.4275159
PAST SALE,August-28-2019,Single Family Residential,6112 Strada Cv,Fort Worth,TX,76123,465695,5,4.5,Tavolo Park,3295,5663,2019,296,141,54,Sold,,,http://www.redfin.com/TX/Fort-Worth/6112-Strada-Cv-76123/home/169105958,NTREIS,14150036,N,Y,32.640141,-97.422228
PAST SALE,September-4-2019,Single Family Residential,6108 Strada Cv,Fort Worth,TX,76123,403111,3,2.5,Tavolo Park,2130,5663,2019,289,189,54,Sold,,,http://www.redfin.com/TX/Fort-Worth/6108-Strada-CV-76123/home/166808430,NTREIS,14096876,N,Y,32.64096,-97.424848
PAST SALE,October-2-2019,Single Family Residential,6201 Fallow Ct,Fort Worth,TX,76132,324900,3,2.0,Quail Ridge Estates Add,2280,8189,1997,261,143,42,Sold,,,http://www.redfin.com/TX/Fort-Worth/6201-Fallow-Ct-76132/home/32442918,NTREIS,14169098,N,Y,32.6471172,-97.4209089
PAST SALE,October-2-2019,Single Family Residential,6816 River Bend Rd,Fort Worth,TX,76132,599000,4,3.5,Meadows West,4646,13068,1983,261,129,,Sold,,,http://www.redfin.com/TX/Fort-Worth/6816-River-Bend-Rd-76132/home/31782042,NTREIS,14126620,N,Y,32.67696,-97.4322837
PAST SALE,October-7-2019,Single Family Residential,7040 Lomo Alto Dr,Fort Worth,TX,76132,234900,3,2.5,Park Palisades Add,2274,7754,1999,256,103,38,Sold,,,http://www.redfin.com/TX/Fort-Worth/7040-Lomo-Alto-Dr-76132/home/32457371,NTREIS,14131000,N,Y,32.6478909,-97.4146394
PAST SALE,October-8-2019,Single Family Residential,6700 Ashbrook Dr,Fort Worth,TX,76132,475000,3,2.5,Meadows West,3450,14375,1984,255,138,,Sold,,,http://www.redfin.com/TX/Fort-Worth/6700-Ashbrook-Dr-76132/home/32337003,NTREIS,14178912,N,Y,32.6799876,-97.426369
PAST SALE,October-16-2019,Single Family Residential,6913 Mccracken Ct,Fort Worth,TX,76132,245000,4,2.5,Oakmont Meadows Add,2614,6534,2001,247,94,,Sold,,,http://www.redfin.com/TX/Fort-Worth/6913-McCracken-Ct-76132/home/32473427,NTREIS,14061410,N,Y,32.6600529,-97.4142597
PAST SALE,October-18-2019,Single Family Residential,6608 High Brook Dr,Fort Worth,TX,76132,247000,4,2.0,Hulen Bend Estates Add,2116,7187,1997,245,117,45,Sold,,,http://www.redfin.com/TX/Fort-Worth/6608-High-Brook-Dr-76132/home/32433863,NTREIS,14142153,N,Y,32.6555521,-97.415048
PAST SALE,November-1-2019,Single Family Residential,6901 Meadowside Rd S,Fort Worth,TX,76132,280000,3,2.0,Quail Ridge Estates Add,1935,11935,1996,231,145,3,Sold,,,http://www.redfin.com/TX/Fort-Worth/6901-Meadowside-Rd-S-76132/home/32423196,NTREIS,14075868,N,Y,32.6514597,-97.4270872
PAST SALE,November-6-2019,Single Family Residential,7504 Ramble Wood Trl,Fort Worth,TX,76132,376900,3,3.5,Quail Ridge Estates Add,2731,9060,1987,226,138,3,Sold,,,http://www.redfin.com/TX/Fort-Worth/7504-Ramble-Wood-Trl-76132/home/32384169,NTREIS,14175465,N,Y,32.6486044,-97.4234119
PAST SALE,November-14-2019,Single Family Residential,6100 Strada Cv,Fort Worth,TX,76123,359034,3,2.0,Tavolo Park,2206,5750,2019,218,163,54,Sold,,,http://www.redfin.com/TX/Fort-Worth/Strada-Cv-76123/home/169574218,NTREIS,14188151,N,Y,32.641021,-97.421371
PAST SALE,November-25-2019,Single Family Residential,6937 Aspen Wood Trl,Fort Worth,TX,76132,320000,4,2.5,Quail Ridge Estates Add,2280,14288,1988,207,140,2,Sold,,,http://www.redfin.com/TX/Fort-Worth/6937-Aspen-Wood-Trl-76132/home/32384240,NTREIS,14207856,N,Y,32.6511455,-97.4234963
PAST SALE,November-25-2019,Single Family Residential,6817 Savannah Ln,Fort Worth,TX,76132,589900,5,3.5,Bellaire Park North,5263,12066,1992,207,112,,Sold,,,http://www.redfin.com/TX/Fort-Worth/6817-Savannah-Ln-76132/home/32372726,NTREIS,14100189,N,Y,32.6735124,-97.4315866
PAST SALE,November-22-2019,Single Family Residential,6821 Descanso Gardens Dr,Fort Worth,TX,76132,210000,3,2.0,Park Palisades Add,1821,5793,2000,210,115,79,Sold,,,http://www.redfin.com/TX/Fort-Worth/6821-Descanso-Gardens-Dr-76132/home/32457376,NTREIS,14210884,N,Y,32.6472914,-97.4143771
PAST SALE,December-4-2019,Single Family Residential,6641 York St,Fort Worth,TX,76132,739000,4,3.5,Trinity Heights Crowley ISD,3614,10934,2000,198,204,77,Sold,,,http://www.redfin.com/TX/Fort-Worth/6641-York-St-76132/home/32457297,NTREIS,14134043,N,Y,32.6549067,-97.4311429
PAST SALE,December-6-2019,Single Family Residential,6457 Elm Crest Ct,Fort Worth,TX,76132,825000,5,5.5,Hawthorne Park Estates,6512,27007,2000,196,127,63,Sold,,,http://www.redfin.com/TX/Fort-Worth/6457-Elm-Crest-Ct-76132/home/31182940,NTREIS,14167383,N,Y,32.6611076,-97.4305726
PAST SALE,December-9-2019,Single Family Residential,6713 Audubon Trl,Fort Worth,TX,76132,345000,5,3.5,Hulen Bend Estates Add,3267,9932,1999,193,106,33,Sold,,,http://www.redfin.com/TX/Fort-Worth/6713-Audubon-Trl-76132/home/32458235,NTREIS,14206073,N,Y,32.6537116,-97.4148869
PAST SALE,December-2-2019,Single Family Residential,6956 Lomo Alto Dr,Fort Worth,TX,76132,239901,4,2.0,Park Palisades Add,2211,6055,2001,200,109,38,Sold,,,http://www.redfin.com/TX/Fort-Worth/6956-Lomo-Alto-Dr-76132/home/32457398,NTREIS,14157173,N,Y,32.6503446,-97.4147387
PAST SALE,November-25-2019,Single Family Residential,7508 Winterbloom Way,Fort Worth,TX,76123,366143,4,3.5,Tavolo Park,2721,5706,2019,207,135,,Sold,,,http://www.redfin.com/TX/FORT-WORTH/7508-WINTERBLOOM-WAY-76123/home/167003265,NTREIS,14133920,N,Y,32.640409,-97.423233
PAST SALE,June-4-2019,Condo/Co-op,5240 Welden Ct,Fort Worth,TX,76132,219900,2,2.0,Villas On The Bluff Condo,1358,7013,1997,381,162,375,Sold,,,http://www.redfin.com/TX/Fort-Worth/5240-Welden-Ct-76132/home/32444888,NTREIS,14078355,N,Y,32.671651,-97.4204
PAST SALE,June-14-2019,Single Family Residential,6453 Elm Crest Ct,Fort Worth,TX,76132,815000,5,5.5,Hawthorne Park Estates,4457,17598,1997,371,183,63,Sold,,,http://www.redfin.com/TX/Fort-Worth/6453-Elm-Crest-Ct-76132/home/32423170,NTREIS,14086985,N,Y,32.6606737,-97.4304881
PAST SALE,May-30-2019,Single Family Residential,6733 East Park Dr,Fort Worth,TX,76132,445000,4,3.5,Bellaire Park North,3259,11935,1995,386,137,3,Sold,,,http://www.redfin.com/TX/Fort-Worth/6733-E-Park-Dr-76132/home/32415656,NTREIS,14067472,N,Y,32.6713804,-97.4290517
PAST SALE,May-30-2019,Single Family Residential,6532 S Dover St,Fort Worth,TX,76132,429900,4,3.0,Trinity Heights Crowley ISD,2166,9845,1999,386,198,85,Sold,,,http://www.redfin.com/TX/Fort-Worth/6532-Dover-Ter-S-76132/home/32457342,NTREIS,14014689,N,Y,32.6524637,-97.4323682
PAST SALE,May-15-2019,Single Family Residential,7337 Valencia Grove Ct,Fort Worth,TX,76132,369000,3,2.0,River Hills II Add,1984,7405,2010,401,186,46,Sold,,,http://www.redfin.com/TX/Fort-Worth/7337-Valencia-Grove-Ct-76132/home/31306037,NTREIS,13995988,N,Y,32.6666558,-97.4276786
PAST SALE,October-17-2018,Single Family Residential,7025 Shinnecock Hills Dr,Fort Worth,TX,76132,1050000,3,3.0,Mira Vista Add,3927,12197,2008,611,267,183,Sold,,,http://www.redfin.com/TX/Fort-Worth/7025-Shinnecock-Hills-Dr-76132/home/32465389,NTREIS,13921954,N,Y,32.647097,-97.4418116
PAST SALE,March-29-2019,Single Family Residential,7020 Shinnecock Hills Dr,Fort Worth,TX,76132,1100000,4,5.0,Mira Vista Add,4831,15682,2018,448,228,204,Sold,,,http://www.redfin.com/TX/Fort-Worth/7020-Shinnecock-Hills-Dr-76132/home/32465388,NTREIS,13764824,N,Y,32.647512,-97.442296
PAST SALE,June-21-2019,Single Family Residential,6709 Olympia Hills Rd,Fort Worth,TX,76132,639000,4,3.5,Mira Vista Add,3560,13155,2000,364,179,183,Sold,,,http://www.redfin.com/TX/Fort-Worth/6709-Olympia-Hills-Ct-76132/home/32456973,NTREIS,14065808,N,Y,32.6476489,-97.441389
PAST SALE,June-28-2019,Single Family Residential,6905 Hazeltine Dr,Fort Worth,TX,76132,825000,5,3.5,Mira Vista Add,3976,11761,1994,357,207,183,Sold,,,http://www.redfin.com/TX/Fort-Worth/6905-Hazeltine-Dr-76132/home/32415958,NTREIS,14095208,N,Y,32.6577273,-97.4402059
PAST SALE,September-10-2019,Single Family Residential,6809 Lahontan Dr,Fort Worth,TX,76132,1060000,4,4.5,Mira Vista Add,4834,16945,2007,283,219,212,Sold,,,http://www.redfin.com/TX/Fort-Worth/6809-Lahontan-Dr-76132/home/32456995,NTREIS,14000779,N,Y,32.6498893,-97.4380298
PAST SALE,October-17-2019,Single Family Residential,6529 Turnberry Dr,Fort Worth,TX,76132,640000,3,4.0,Mira Vista Add,4225,12197,1996,246,151,550,Sold,,,http://www.redfin.com/TX/Fort-Worth/6529-Turnberry-Dr-76132/home/32415971,NTREIS,14176611,N,Y,32.6568977,-97.4397622
PAST SALE,August-9-2018,Single Family Residential,6509 Lago Vista Dr,Benbrook,TX,76132,409000,4,3.0,Country Day Estates,2607,9845,1984,680,157,,Sold,,,http://www.redfin.com/TX/Benbrook/6509-Lago-Vista-Dr-76132/home/31501807,NTREIS,13860279,N,Y,32.6922789,-97.4224086
PAST SALE,September-27-2018,Townhouse,6648 Rue Chateau St N,Benbrook,TX,76132,275000,3,3.0,Country Day Estates,1856,1394,1984,631,148,135,Sold,,,http://www.redfin.com/TX/Benbrook/6648-Rue-Chateau-St-N-76132/home/32364274,NTREIS,13919533,N,Y,32.693289,-97.424883
PAST SALE,December-20-2017,Single Family Residential,5953 River Bend Dr,Benbrook,TX,76132,342000,3,3.5,Bellaire Country Place Add,2999,5619,1985,912,114,117,Sold,,,http://www.redfin.com/TX/Benbrook/5953-River-Bend-Dr-76132/home/31006119,NTREIS,13683705,N,Y,32.6914806,-97.4254683
PAST SALE,December-17-2018,Single Family Residential,12 Lombardy Ter,Benbrook,TX,76132,464900,5,3.0,Mont Del Estates Add,3279,26397,1971,550,142,,Sold,,,http://www.redfin.com/TX/Benbrook/12-Lombardy-Ter-76132/home/31795343,NTREIS,13950250,N,Y,32.6872062,-97.4226205
PAST SALE,September-27-2018,Single Family Residential,12 Legend Rd,Benbrook,TX,76132,325000,3,2.0,Mont Del Estates Add,2062,12894,1974,631,158,,Sold,,,http://www.redfin.com/TX/Benbrook/12-Legend-Rd-76132/home/31795504,NTREIS,13905691,N,Y,32.690044,-97.4173249
PAST SALE,July-24-2018,Single Family Residential,13 Legend Rd,Benbrook,TX,76132,239900,3,2.0,Mont Del Estates Add,2031,7362,1975,696,118,,Sold,,,http://www.redfin.com/TX/Benbrook/13-Legend-Rd-76132/home/31795416,NTREIS,13809933,N,Y,32.6894972,-97.4172871
PAST SALE,February-8-2018,Single Family Residential,6704 Hillside Dr,Benbrook,TX,76132,419900,5,4.0,Country Day Estates,3379,14680,1987,862,124,,Sold,,,http://www.redfin.com/TX/Benbrook/6704-Hillside-Dr-76132/home/32333688,NTREIS,13741327,N,Y,32.6895749,-97.4252736
PAST SALE,December-7-2018,Single Family Residential,14 Park Ln,Benbrook,TX,76132,374999,4,3.0,Mont Del Estates,2725,15812,1965,560,138,,Sold,,,http://www.redfin.com/TX/Benbrook/14-Park-Ln-76132/home/31795465,NTREIS,13949170,N,Y,32.6885488,-97.4188919
PAST SALE,January-9-2019,Townhouse,6642 Rue Chateau St N,Benbrook,TX,76132,255000,2,2.5,Country Day Estates,1784,1220,1984,527,143,125,Sold,,,http://www.redfin.com/TX/Benbrook/6642-Rue-Chateau-St-N-76132/home/32364263,NTREIS,13905686,N,Y,32.6932753,-97.4246032
PAST SALE,February-11-2019,Single Family Residential,7029 Brierhollow Ct,Fort Worth,TX,76132,369900,4,2.0,Briercliff Estates Add,2535,8276,2002,494,146,38,Sold,,,http://www.redfin.com/TX/Fort-Worth/7029-Brierhollow-Ct-76132/home/32465225,NTREIS,13901411,N,Y,32.6463931,-97.4311007
PAST SALE,March-15-2019,Single Family Residential,7416 Winterbloom Way,Fort Worth,TX,76132,307000,3,2.0,Tavolo Park,2259,5968,2019,462,136,54,Sold,,,http://www.redfin.com/TX/FORT-WORTH/7416-WINTERBLOOM-WAY-76123/home/146680856,NTREIS,13913665,N,Y,32.640409,-97.423233
PAST SALE,June-27-2019,Single Family Residential,7501 Plumgrove Rd,Fort Worth,TX,76123,483070,4,3.0,Tavolo Park,3004,6534,2019,358,161,54,Sold,,,http://www.redfin.com/TX/FORT-WORTH/7501-PLUMGROVE-RD-76123/home/146775622,NTREIS,14018258,N,Y,32.641019,-97.424851
PAST SALE,May-17-2019,Single Family Residential,7520 Pondview Ln,Fort Worth,TX,76123,466553,4,3.5,Tavolo Park,3065,8059,2019,399,152,54,Sold,,,http://www.redfin.com/TX/Benbrook/7520-Pondview-Ln-76132/home/148435695,NTREIS,14038332,N,Y,32.641019,-97.424851
PAST SALE,June-12-2019,Single Family Residential,6854 Lahontan Dr,Fort Worth,TX,76132,1175000,4,5.0,Mira Vista Add,4654,24568,2002,373,252,183,Sold,,,http://www.redfin.com/TX/Fort-Worth/6854-Lahontan-Dr-76132/home/32457079,NTREIS,14051402,N,Y,32.6486264,-97.4350851
PAST SALE,June-21-2019,Single Family Residential,7456 Pondview Ln,Fort Worth,TX,76132,397391,4,3.0,Tavolo Park,3291,7362,2019,364,121,54,Sold,,,http://www.redfin.com/TX/Benbrook/7456-Pondview-Ln-76132/home/147302062,NTREIS,13943649,N,Y,32.640409,-97.423233
PAST SALE,June-21-2019,Single Family Residential,7452 Pondview Ln,Fort Worth,TX,76123,491459,4,3.5,Tavolo Park,3363,6098,2019,364,146,54,Sold,,,http://www.redfin.com/TX/Benbrook/7452-Pondview-Ln-76132/home/147720952,NTREIS,14018380,N,Y,32.641019,-97.424851
PAST SALE,July-24-2019,Single Family Residential,7504 Winterbloom Way,Fort Worth,TX,76132,329000,3,2.0,Tavolo Park,2035,5706,2019,331,162,,Sold,,,http://www.redfin.com/TX/Benbrook/7504-Winterbloom-WAY-76132/home/160726581,NTREIS,14061977,N,Y,32.640409,-97.423233
PAST SALE,May-6-2019,Single Family Residential,6200 Tavolo Pkwy,Fort Worth,TX,76123,462353,4,3.5,Tavolo Park,2942,10019,2019,410,157,54,Sold,,,http://www.redfin.com/TX/FORT-WORTH/6200-TAVOLO-PKWY-76123/home/164436519,NTREIS,14079075,N,Y,32.639004,-97.423097
PAST SALE,May-10-2019,Single Family Residential,7109 Saucon Valley Dr,Fort Worth,TX,76132,692000,4,3.5,Mira Vista Add,3505,11587,1995,406,197,183,Sold,,,http://www.redfin.com/TX/Fort-Worth/7109-Saucon-Valley-Dr-76132/home/32421380,NTREIS,14053541,N,Y,32.6545262,-97.4434807
PAST SALE,April-26-2019,Single Family Residential,7412 Winterbloom Way,Fort Worth,TX,76132,359188,5,4.0,Tavolo Park,3145,5968,2019,420,114,54,Sold,,,http://www.redfin.com/TX/Benbrook/7412-Winterbloom-Way-76132/home/148603579,NTREIS,13988729,N,Y,32.640409,-97.423233
PAST SALE,April-29-2019,Single Family Residential,7460 Pondview Ln,Fort Worth,TX,76132,375228,4,3.0,Tavolo Park,2886,7362,2019,417,130,54,Sold,,,http://www.redfin.com/TX/Benbrook/7460-Pondview-Ln-76132/home/147267607,NTREIS,13941633,N,Y,32.640409,-97.423233
PAST SALE,June-24-2019,Single Family Residential,7408 Winterbloom Way,Fort Worth,TX,76132,350067,4,3.0,Tavolo Park,2861,6447,2019,361,122,,Sold,,,http://www.redfin.com/TX/Benbrook/7408-Winterbloom-Way-76132/home/147420618,NTREIS,13975709,N,Y,32.640409,-97.423233
PAST SALE,July-15-2019,Single Family Residential,7425 Winterbloom Way,Fort Worth,TX,76132,300000,3,2.0,Tavolo Park,1876,7100,2019,340,160,,Sold,,,http://www.redfin.com/TX/Benbrook/7425-Winterbloom-Way-76132/home/147889673,NTREIS,13979656,N,Y,32.640409,-97.423233
PAST SALE,July-17-2019,Single Family Residential,7513 Winterbloom Way,Fort Worth,TX,76132,333537,3,2.0,Tavolo Park,2206,5881,2019,338,151,,Sold,,,http://www.redfin.com/TX/Benbrook/7513-Winterbloom-WAY-76132/home/160718847,NTREIS,14052177,N,Y,32.640409,-97.423233
PAST SALE,July-15-2019,Single Family Residential,7513 Pondview Ln,Fort Worth,TX,76123,548817,5,4.5,Tavolo Park,3827,7405,2019,340,143,54,Sold,,,http://www.redfin.com/TX/Unknown/7513-Pondview-Ln-76132/home/164438280,NTREIS,14079117,N,Y,32.639261,-97.425068
PAST SALE,December-13-2019,Single Family Residential,7525 Pondview Ln,Fort Worth,TX,76123,415000,4,3.0,Tavolo Park,2891,6142,2019,189,144,54,Sold,,,http://www.redfin.com/TX/Fort-Worth/Pondview-Ln-76132/home/169574150,NTREIS,14150966,N,Y,32.640409,-97.423233
PAST SALE,December-27-2019,Single Family Residential,6053 Strada Cv,Fort Worth,TX,76123,428430,3,2.5,Tavolo Park,2250,5663,2019,175,190,54,Sold,,,http://www.redfin.com/TX/Fort-Worth/Strada-Cv-76123/home/169574223,NTREIS,14182481,N,Y,32.64096,-97.424848
PAST SALE,December-30-2019,Single Family Residential,6300 Tavolo Pkwy,Fort Worth,TX,76132,412888,3,2.5,Tavolo Park,2297,2614,2019,172,180,54,Sold,,,http://www.redfin.com/TX/Fort-Worth/6300-tavolo-Pkwy-76123/home/169120259,NTREIS,14250875,N,Y,32.637263,-97.4250747
PAST SALE,February-24-2020,Single Family Residential,7504 Pondview Ln,Fort Worth,TX,76123,498513,4,3.5,Tavolo Park,3065,7405,2020,116,163,54,Sold,,,http://www.redfin.com/TX/Fort-Worth/Pondview-Ln-76132/home/169574133,NTREIS,14288184,N,Y,32.639483,-97.425679
PAST SALE,June-5-2020,Single Family Residential,6017 Tavolo Pkwy,Fort Worth,TX,76123,390000,4,3.5,Tavolo Park,2698,6011,2020,14,145,54,Sold,,,http://www.redfin.com/TX/FORT-WORTH/6017-TAVOLO-PKWY-76123/home/169574226,NTREIS,14264582,N,Y,32.640409,-97.421912
PAST SALE,May-29-2020,Single Family Residential,6244 Tavolo Pkwy,Fort Worth,TX,76132,375000,3,2.0,Tavolo Park,2276,8276,2020,21,165,54,Sold,,,http://www.redfin.com/TX/FORT-WORTH/6244-TAVOLO-PKWY-76123/home/169574117,NTREIS,14320795,N,Y,32.640409,-97.421912
PAST SALE,December-26-2019,Single Family Residential,7420 Winterbloom Way,Fort Worth,TX,76123,430322,3,2.0,Tavolo Park,2224,5663,2019,176,193,54,Sold,,,http://www.redfin.com/TX/FORT-WORTH/7420-WINTERBLOOM-WAY-76123/home/168984129,NTREIS,14182552,N,Y,32.64096,-97.424848
PAST SALE,February-21-2020,Single Family Residential,7428 Winterbloom Way,Fort Worth,TX,76123,494117,4,3.0,Tavolo Park,3042,2614,2020,119,162,54,Sold,,,http://www.redfin.com/TX/FORT-WORTH/7428-WINTERBLOOM-WAY-76123/home/169574091,NTREIS,14288173,N,Y,32.638243,-97.425723
PAST SALE,May-5-2020,Single Family Residential,7448 Pondview Ln,Fort Worth,TX,76123,402000,4,3.0,Tavolo Park,2614,7362,2019,45,154,54,Sold,,,http://www.redfin.com/TX/Fort-Worth/Pondview-Ln-76132/home/169574097,NTREIS,14259368,N,Y,32.640409,-97.423233
PAST SALE,December-27-2019,Single Family Residential,7424 Plumgrove Rd,Fort Worth,TX,76123,370000,4,3.0,Tavolo Park,2891,6142,2019,175,128,54,Sold,,,http://www.redfin.com/TX/FORT-WORTH/7424-PLUMGROVE-RD-76123/home/167144469,NTREIS,14134761,N,Y,32.640409,-97.423233
PAST SALE,September-30-2019,Single Family Residential,6033 Tavolo Pkwy,Fort Worth,TX,76123,414545,3,2.5,Tavolo Park,2297,5663,2019,263,180,54,Sold,,,http://www.redfin.com/TX/FORT-WORTH/6033-TAVOLO-PKWY-76123/home/169252378,NTREIS,14196255,N,Y,32.638279,-97.423752
PAST SALE,December-30-2019,Single Family Residential,7553 Winterbloom Way,Fort Worth,TX,76123,431027,4,2.5,Tavolo Park,2248,6098,2019,172,192,54,Sold,,,http://www.redfin.com/TX/FORT-WORTH/7553-WINTERBLOOM-WAY-76123/home/168985245,NTREIS,14182760,N,Y,32.639106,-97.426238
PAST SALE,November-20-2019,Single Family Residential,7544 Winterbloom Way,Fort Worth,TX,76123,429696,3,2.5,Tavolo Park,2297,5663,2019,212,187,54,Sold,,,http://www.redfin.com/TX/FORT-WORTH/7544-WINTERBLOOM-WAY-76123/home/168979864,NTREIS,14182253,N,Y,32.639141,-97.426256
PAST SALE,June-3-2019,Single Family Residential,6144 Strada Cv,Fort Worth,TX,76123,437010,4,3.0,Tavolo Park,3042,8712,2019,382,144,54,Sold,,,http://www.redfin.com/TX/Fort-Worth/6144-Strada-Cv-76123/home/164428786,NTREIS,14078908,N,Y,32.640306,-97.422673
PAST SALE,September-5-2019,Single Family Residential,7516 Pondview Ln,Fort Worth,TX,76132,435343,4,4.0,Tavolo Park,4000,7449,2019,288,109,,Sold,,,http://www.redfin.com/TX/Fort-Worth/7516-Pondview-LN-76123/home/165416446,NTREIS,14096794,N,Y,32.640409,-97.423233
PAST SALE,March-2-2018,Single Family Residential,6708 Trinity Landing Dr N,Fort Worth,TX,76132,449900,4,2.5,Bellaire Park North,3428,12197,1993,840,131,,Sold,,,http://www.redfin.com/TX/Fort-Worth/6708-Trinity-Landing-Dr-N-76132/home/32372722,NTREIS,13734636,N,Y,32.675631,-97.4269393
PAST SALE,November-22-2017,Townhouse,6605 Lost Star Ln,Fort Worth,TX,76132,356944,2,3.0,Bellaire Village,2467,,2017,940,145,83,Sold,,,http://www.redfin.com/TX/Fort-Worth/6605-Lost-Star-Ln-76132/home/31226467,NTREIS,13646144,N,Y,32.668322,-97.426321
PAST SALE,May-15-2018,Single Family Residential,7321 VALENCIA GROVE Ct,Fort Worth,TX,76132,448000,3,2.5,River Hills II Add,3032,5663,2012,766,148,46,Sold,,,http://www.redfin.com/TX/Fort-Worth/7321-Valencia-Grove-Ct-76132/home/31306041,NTREIS,13790512,N,Y,32.667155,-97.4281433
PAST SALE,October-30-2018,Single Family Residential,7409 Pebble Ridge Dr,Fort Worth,TX,76132,492900,3,2.5,Pebble Creek Ridge Add,2905,6534,2001,598,170,117,Sold,,,http://www.redfin.com/TX/Fort-Worth/7409-Pebble-Ridge-Dr-76132/home/32477687,NTREIS,13938518,N,Y,32.6657398,-97.4279532
PAST SALE,August-24-2018,Single Family Residential,5033 Highland Meadow Dr,Fort Worth,TX,76132,447500,4,2.5,Meadows West Add,3368,11979,1996,665,133,,Sold,,,http://www.redfin.com/TX/Fort-Worth/5033-Highland-Meadow-Dr-76132/home/32401243,NTREIS,13882421,N,Y,32.6742308,-97.4250171
PAST SALE,January-24-2018,Single Family Residential,5109 Alaire Dr,Fort Worth,TX,76132,405000,4,2.5,Bellaire Park North,2905,13460,1993,877,139,,Sold,,,http://www.redfin.com/TX/Fort-Worth/5109-Alaire-Dr-76132/home/32415675,NTREIS,13718976,N,Y,32.6721889,-97.4320724
PAST SALE,July-2-2018,Single Family Residential,6605 Sahalee Dr,Fort Worth,TX,76132,1490000,6,6.0,Mira Vista Add,7005,24219,1993,718,213,183,Sold,,,http://www.redfin.com/TX/Fort-Worth/6605-Sahalee-Dr-76132/home/32413986,NTREIS,13843343,N,Y,32.6566611,-97.4359806
PAST SALE,June-29-2018,Single Family Residential,6717 Morning Dew Dr,Fort Worth,TX,76132,497500,3,3.0,Meadows West Add,2667,9757,1989,721,187,,Sold,,,http://www.redfin.com/TX/Fort-Worth/6717-Morning-Dew-Dr-76132/home/32336915,NTREIS,13783096,N,Y,32.6801107,-97.4287348
PAST SALE,August-11-2017,Townhouse,7100 Rose Quartz Ct,Fort Worth,TX,76132,320204,2,3.0,Bellaire Village,2220,,2016,1043,144,83,Sold,,,http://www.redfin.com/TX/Fort-Worth/7100-Rose-Quartz-Ct-76132/home/31226450,NTREIS,13424274,N,Y,32.669011,-97.428001
PAST SALE,October-26-2018,Townhouse,6753 Lost Star Ln,Fort Worth,TX,76132,369900,2,2.5,Bellaire Village,2504,4225,2015,602,148,83,Sold,,,http://www.redfin.com/TX/Fort-Worth/6753-Lost-Star-Ln-76132/home/31226477,NTREIS,13873586,N,Y,32.6683325,-97.4282701
PAST SALE,April-2-2018,Single Family Residential,6500 Briarcrest Ct,Fort Worth,TX,76132,724900,4,6.0,Meadows West Add,6002,36024,1999,809,121,3,Sold,,,http://www.redfin.com/TX/Fort-Worth/6500-Briarcrest-Ct-76132/home/32401189,NTREIS,13743920,N,Y,32.6745457,-97.4238353
PAST SALE,April-26-2018,Single Family Residential,6604 Andress Dr,Fort Worth,TX,76132,195000,3,2.0,Oakmont Meadows Add,1843,5532,1999,785,106,,Sold,,,http://www.redfin.com/TX/Fort-Worth/6604-Andress-Dr-76132/home/32446103,NTREIS,13798505,N,Y,32.6587024,-97.4100218
PAST SALE,December-5-2018,Single Family Residential,6929 Mesa Dr,Fort Worth,TX,76132,230000,4,2.0,Hulen Bend Estates Add,2055,7187,1996,562,112,45,Sold,,,http://www.redfin.com/TX/Fort-Worth/6929-Mesa-Dr-76132/home/32433806,NTREIS,13943231,N,Y,32.6566715,-97.4131896
PAST SALE,February-21-2019,Single Family Residential,6725 Windwood Trl,Fort Worth,TX,76132,298000,4,2.5,HULEN BEND ESTATES,3038,6882,2001,484,98,45,Sold,,,http://www.redfin.com/TX/Fort-Worth/6725-Windwood-Trl-76132/home/32445433,NTREIS,14000154,N,Y,32.655791,-97.4106342
PAST SALE,March-5-2019,Single Family Residential,6800 Spring Valley Way,Fort Worth,TX,76132,280000,3,2.0,Hulen Bend Estates Add,2428,7187,1998,472,115,45,Sold,,,http://www.redfin.com/TX/Fort-Worth/6800-Spring-Valley-Way-76132/home/32445375,NTREIS,14008038,N,Y,32.6579166,-97.4121759
PAST SALE,March-8-2019,Townhouse,6725 Lost Star Ln,Fort Worth,TX,76132,349000,3,2.5,Bellaire Village,2449,2657,2015,469,143,83,Sold,,,http://www.redfin.com/TX/Fort-Worth/6725-Lost-Star-Ln-76132/home/31226484,NTREIS,13997914,N,Y,32.6683726,-97.4275941
